     2.11           OBSERVATION DATA    G (GPS)             RINEX VERSION / TYPE
teqc  2016Nov7      root                20180112 23:32:19UTCPGM / RUN BY / DATE
Linux 2.4.21-27.ELsmp|Opteron|gcc|Linux x86_64|=+           COMMENT
     2.11           OBSERVATION DATA    G (GPS)             COMMENT
teqc  2017Sep15     NOAA/NOS/NGS/CORS   20180109 15:36:11UTCCOMMENT
Solaris x86 5.10|AMD64|cc SC5.8 -xarch=amd64|=+|=+          COMMENT
teqc  2017Sep15     UNAVCO Archive Ops  20180109 12:22:55UTCCOMMENT
BIT 2 OF LLI FLAGS DATA COLLECTED UNDER A/S CONDITION       COMMENT
input file: corv201801080000.bnx                            COMMENT
RINEX file created by UNAVCO GPS Archive.                   COMMENT
For more information contact archive@unavco.org             COMMENT
Monument ID: 12314                                          COMMENT
UNAVCO 4-char name:   CORV                                  COMMENT
4-char name from Log or data file: CORV                     COMMENT
Monument location: 44.585535 -123.304604 105.6205           COMMENT
Visit ID: 101100                                            COMMENT
End of DB comments                                          COMMENT
 SNR is mapped to RINEX snr flag value [0-9]                COMMENT
  L1 & L2: min(max(int(snr_dBHz/6), 0), 9)                  COMMENT
teqc.e edited: all SBAS satellites excluded                 COMMENT
teqc.e edited: all QZSS satellites excluded                 COMMENT
CORV                                                        MARKER NAME
49659M001                                                   MARKER NUMBER
Goldfinger, Chris   Oregon State University                 OBSERVER / AGENCY
4527253291          TRIMBLE NETRS       1.3-0               REC # / TYPE / VERS
CR1998490176        ASH700936E_C    UNAV                    ANT # / TYPE
 -2498423.1090 -3802822.0340  4454737.7580                  APPROX POSITION XYZ
        1.5210        0.0000        0.0000                  ANTENNA: DELTA H/E/N
     1     1                                                WAVELENGTH FACT L1/2
     8    L1    L2    C1    C2    P1    P2    S1    S2      # / TYPES OF OBSERV
     1.0000                                                 INTERVAL
teqc.w windowed: start @ 2018 Jan  8 20:00:00.000           COMMENT
teqc.w windowed:  end  @ 2018 Jan  8 21:00:00.000           COMMENT
teqc.w edited: all GLONASS satellites excluded              COMMENT
  2018     1     8    20     0    0.0000000     GPS         TIME OF FIRST OBS
                                                            END OF HEADER
 18  1  8 20  0  0.0000000  0 10G26G23G11G03G31G01G14G22G25G32
 128296330.577 6  99971167.79043  24413976.347
  24413971.0294         36.400          21.1004
 122796174.124 7  95685286.34844  23367330.692
  23367318.6334         45.700          27.9004
 124218822.531 6  96793833.63244  23638062.435
  23638053.0144         40.500          24.0004
 110569317.620 8  86157889.71546  21040638.739
  21040631.1354         48.300          41.6004
 108807059.199 8  84784690.09547  20705288.297
  20705277.0004         51.500          43.2004
 113416691.702 7  88376605.33546  21582481.494
  21582474.6514         46.700          39.6004
 116377946.249 7  90684079.35145  22145987.223
  22145977.9194         44.900          34.4004
 107937072.093 8  84106765.43447  20539738.247
  20539725.0754         51.100          44.7004
 128111276.982 6  99826949.55043  24378758.430
  24378751.8814         41.100          22.3004
 125492368.447 6  97786221.85044  23880408.216
  23880401.1394         40.600          27.1004
 18  1  8 20  0  1.0000000  0 10G26G23G11G03G31G01G14G22G25G32
 128293238.136 6  99968758.10443  24413388.174
  24413382.6214         37.100          20.9004
 122793616.672 7  95683293.52644  23366844.203
  23366832.1444         45.900          29.5004
 124221932.844 6  96796257.25444  23638653.494
  23638644.6594         40.800          24.4004
 110567376.785 8  86156377.37046  21040269.309
  21040261.7644         48.100          41.8004
 108808010.569 8  84785431.41847  20705469.254
  20705458.0754         51.700          43.4004
 113418612.303 7  88378101.90246  21582847.002
  21582840.0424         47.000          39.5004
 116380194.257 7  90685831.04345  22146414.984
  22146405.2694         45.500          34.1004
 107936361.700 8  84106211.88247  20539602.785
  20539589.7894         51.600          44.9004
 128111945.254 6  99827470.28043  24378885.368
  24378878.7604         40.900          22.6004
 125495315.900 6  97788518.56644  23880968.979
  23880962.4304         40.300          26.7004
 18  1  8 20  0  2.0000000  0 10G26G23G11G03G31G01G14G22G25G32
 128290146.151 6  99966348.78643  24412800.112
  24412793.9734         36.800          20.9004
 122791059.684 7  95681301.07544  23366357.875
  23366345.5234         46.000          28.8004
 124225043.715 6  96798681.30644  23639246.071
  23639236.8844         40.400          25.3004
 110565436.629 8  86154865.56846  21039899.985
  21039892.3814         48.300          41.7004
 108808962.891 8  84786173.48547  20705650.512
  20705639.5084         51.800          43.5004
 113420533.794 7  88379599.17246  21583212.715
  21583205.6974         47.000          39.4004
 116382442.748 7  90687583.11445  22146843.107
  22146833.3344         45.400          34.3004
 107935652.068 8  84105658.92547  20539467.897
  20539455.0764         51.500          44.9004
 128112614.479 6  99827991.74543  24379012.806
  24379006.1394         40.200          22.6004
 125498263.739 6  97790815.57544  23881529.504
  23881523.0724         41.400          26.5004
 18  1  8 20  0  3.0000000  0 10G26G23G11G03G31G01G14G22G25G32
 128287054.162 6  99963939.43143  24412211.253
  24412205.4664         36.500          20.6004
 122788502.764 7  95679308.67344  23365871.523
  23365858.9964         46.200          29.4004
 124228154.693 6  96801105.44644  23639837.638
  23639828.5694         39.900          24.3004
 110563496.745 8  86153353.97146  21039530.912
  21039523.5424         48.400          41.8004
 108809915.786 8  84786916.00247  20705831.766
  20705820.6454         51.800          43.6004
 113422455.733 7  88381096.78346  21583578.346
  21583571.5044         47.400          39.5004
 116384691.312 7  90689335.23845  22147270.810
  22147261.2724         45.100          34.8004
 107934942.814 8  84105106.25847  20539332.810
  20539320.1064         51.400          44.9004
 128113284.311 6  99828513.71143  24379139.893
  24379133.8714         40.200          22.8004
 125501211.652 6  97793112.65644  23882091.212
  23882084.0774         40.700          26.8004
 18  1  8 20  0  4.0000000  0 10G26G23G11G03G31G01G14G22G25G32
 128283962.224 6  99961530.13843  24411623.537
  24411617.0464         37.100          20.9004
 122785945.870 7  95677316.28744  23365384.943
  23365372.1814         46.100          29.1004
 124231265.849 6  96803529.71844  23640430.296
  23640421.3434         40.300          24.7004
 110561557.136 8  86151842.58146  21039162.088
  21039154.2494         48.100          41.7004
 108810869.234 8  84787658.95447  20706013.287
  20706001.9904         51.400          43.5004
 113424378.165 7  88382594.79046  21583944.267
  21583937.5424         47.200          39.6004
 116386939.995 7  90691087.45145  22147698.539
  22147689.0004         45.500          34.9004
 107934233.882 8  84104553.84147  20539198.154
  20539185.3344         51.600          44.9004
 128113954.629 6  99829036.03043  24379267.655
  24379261.5164         40.400          22.6004
 125504159.463 6  97795409.64044  23882652.050
  23882645.0324         40.500          27.4004
 18  1  8 20  0  5.0000000  0 10G26G23G11G03G31G01G14G22G25G32
 128280870.473 6  99959120.97643  24411034.268
  24411028.5404         37.500          21.1004
 122783389.295 7  95675324.14944  23364898.009
  23364885.8334         46.200          29.5004
 124234377.316 6  96805954.23544  23641021.980
  23641013.2034         40.400          25.3004
 110559618.014 8  86150331.57546  21038792.678
  21038785.0154         48.100          41.7004
 108811823.488 8  84788402.52747  20706194.793
  20706183.6144         51.100          43.6004
 113426301.295 7  88384093.32946  21584310.091
  21584303.0144         47.600          39.6004
 116389188.981 7  90692839.90945  22148126.537
  22148116.9404         45.700          35.0004
 107933525.585 8  84104001.92247  20539063.237
  20539050.4174         51.900          44.9004
 128114625.825 6  99829559.03743  24379395.449
  24379389.1934         40.200          22.5004
 125507107.517 6  97797706.81644  23883213.086
  23883206.0674         41.000          26.4004
 18  1  8 20  0  6.0000000  0 10G26G23G11G03G31G01G14G22G25G32
 128277778.717 6  99956711.82543  24410446.405
  24410440.3254         37.100          20.9004
 122780832.724 7  95673332.01844  23364411.462
  23364399.5214         46.300          29.4004
 124237488.947 6  96808378.87944  23641614.289
  23641605.1024         39.800          24.9004
 110557679.154 8  86148820.77646  21038423.978
  21038416.4914         48.500          41.7004
 108812778.235 8  84789146.49147  20706376.536
  20706365.2984         51.600          43.6004
 113428224.875 8  88385592.22346  21584676.462
  21584669.3274         48.100          39.6004
 116391437.999 7  90694592.38945  22148554.614
  22148545.1934         45.600          35.2004
 107932817.569 8  84103450.22147  20538928.357
  20538915.5364         51.900          44.8004
 128115297.482 6  99830082.40743  24379522.735
  24379516.7134         39.900          22.3004
 125510055.523 6  97800003.96144  23883774.456
  23883766.9104         41.700          26.9004
 18  1  8 20  0  7.0000000  0 10G26G23G11G03G31G01G14G22G25G32
 128274687.148 6  99954302.82043  24409857.831
  24409852.4544         37.800          21.7004
 122778276.342 7  95671340.03644  23363924.723
  23363913.1334         45.900          29.2004
 124240600.772 6  96810803.66644  23642206.445
  23642197.3764         40.400          24.7004
 110555740.652 8  86147310.25647  21038055.245
  21038047.6414         48.400          42.0004
 108813733.668 8  84789890.97647  20706558.536
  20706547.4154         51.800          43.6004
 113430149.031 7  88387091.56446  21585042.275
  21585035.1994         47.300          39.2004
 116393687.217 7  90696345.02745  22148983.106
  22148973.0994         45.800          34.8004
 107932110.032 8  84102898.89347  20538793.914
  20538781.3874         51.500          44.7004
 128115969.840 6  99830606.30643  24379650.801
  24379644.9554         39.500          22.2004
 125513003.546 7  97802301.11944  23884335.329
  23884327.7254         42.000          26.9004
 18  1  8 20  0  8.0000000  0 10G26G23G11G03G31G01G14G22G25G32
 128271595.651 6  99951893.87343  24409269.820
  24409263.6224         37.400          21.5004
 122775720.134 7  95669348.18744  23363438.283
  23363426.5174         46.100          28.6004
 124243712.915 6  96813228.73044  23642798.444
  23642789.6674         40.600          24.8004
 110553802.597 8  86145800.09046  21037686.503
  21037678.7824         48.600          41.9004
 108814689.810 8  84790636.02347  20706740.279
  20706729.3344         51.300          43.8004
 113432073.790 7  88388591.37646  21585408.942
  21585402.2754         46.700          39.4004
 116395936.684 7  90698097.85645  22149410.423
  22149401.3544         45.300          34.6004
 107931403.017 8  84102347.97047  20538659.638
  20538646.5254         51.200          45.1004
 128116642.900 6  99831130.76643  24379778.908
  24379773.2964         39.600          22.3004
 125515951.756 6  97804598.43244  23884896.124
  23884889.1064         41.700          27.2004
 18  1  8 20  0  9.0000000  0 10G26G23G11G03G31G01G14G22G25G32
 128268504.376 6  99949485.09543  24408682.236
  24408675.6874         37.400          21.3004
 122773164.180 7  95667356.53044  23362952.478
  23362940.3024         46.500          28.7004
 124246825.359 6  96815654.00944  23643391.108
  23643381.9214         40.400          24.7004
 110551864.963 8  86144290.24247  21037317.414
  21037309.8684         49.100          42.0004
 108815646.681 8  84791381.63747  20706922.238
  20706911.1174         51.700          43.5004
 113433999.217 7  88390091.70946  21585774.971
  21585768.3054         47.200          39.5004
 116398186.389 7  90699850.87645  22149838.514
  22149829.3274         45.200          34.3004
 107930696.532 8  84101797.46647  20538524.935
  20538512.4084         51.400          44.9004
 128117316.701 6  99831655.79043  24379906.720
  24379901.1084         40.200          22.3004
 125518900.092 7  97806895.84544  23885457.952
  23885450.0554         42.000          26.7004
 18  1  8 20  0 10.0000000  0 10G26G23G11G03G31G01G14G22G25G32
 128265413.027 6  99947076.25443  24408092.709
  24408087.4494         37.700          21.3004
 122770608.140 7  95665364.81844  23362465.424
  23362453.3074         46.700          29.3004
 124249937.818 6  96818079.29644  23643983.210
  23643973.9064         40.600          24.3004
 110549927.482 8  86142780.51547  21036948.834
  21036941.2894         49.100          42.0004
 108816603.975 8  84792127.58747  20707104.307
  20707093.4794         51.800          43.4004
 113435924.965 7  88391592.28946  21586141.289
  21586134.9154         47.500          39.7004
 116400436.059 7  90701603.87045  22150266.774
  22150257.1194         45.400          34.2004
 107929990.267 8  84101247.13447  20538390.382
  20538377.7374         51.300          44.8004
 128117990.948 6  99832181.17443  24380035.220
  24380029.9024         39.900          22.2004
 125521848.288 6  97809193.13944  23886018.698
  23886011.3874         41.700          27.0004
 18  1  8 20  0 11.0000000  0 10G26G23G11G03G31G01G14G22G25G32
 128262321.857 6  99944667.55943  24407505.334
  24407499.0194         37.000          21.5004
 122768052.356 7  95663373.29944  23361979.274
  23361967.2154         46.600          29.4004
 124253050.573 6  96820504.82744  23644575.283
  23644566.4484         40.100          26.1004
 110547990.468 8  86141271.15747  21036580.667
  21036572.9464         49.100          42.0004
 108817562.014 8  84792874.10447  20707286.718
  20707275.9484         51.500          43.5004
 113437851.379 7  88393093.38946  21586507.889
  21586501.1054         46.900          39.7004
 116402686.001 7  90703357.06545  22150694.965
  22150685.4264         44.800          34.2004
 107929284.574 8  84100697.24147  20538256.045
  20538243.6344         51.100          44.7004
 128118665.943 6  99832707.15243  24380163.390
  24380158.1304         39.900          22.0004
 125524796.691 6  97811490.60344  23886580.116
  23886572.1614         41.500          27.1004
 18  1  8 20  0 12.0000000  0 10G26G23G11G03G31G01G14G22G25G32
 128259230.814 6  99942258.96143  24406917.289
  24406911.1504         36.900          21.5004
 122765496.724 7  95661381.89344  23361493.328
  23361481.2114         46.600          29.3004
 124256163.600 6  96822930.56744  23645167.205
  23645158.8974         40.700          25.6004
 110546053.828 8  86139762.09047  21036212.009
  21036204.0534         49.100          42.0004
 108818520.735 8  84793621.15647  20707469.162
  20707457.9244         51.300          43.3004
 113439778.386 7  88394594.95346  21586874.678
  21586868.1874         47.100          39.6004
 116404936.133 7  90705110.41045  22151122.901
  22151113.5394         45.200          34.4004
 107928579.325 8  84100147.69547  20538121.814
  20538109.2284         51.600          44.6004
 128119341.575 6  99833233.61843  24380291.991
  24380286.6144         40.400          22.2004
 125527745.129 6  97813788.08944  23887140.632
  23887133.3204         41.000          27.4004
 18  1  8 20  0 13.0000000  0 10G26G23G11G03G31G01G14G22G25G32
 128256139.973 6  99939850.50743  24406327.858
  24406322.8924         36.900          21.7004
 122762941.286 7  95659390.64644  23361006.820
  23360995.1134         46.400          28.9004
 124259276.861 6  96825356.47144  23645760.235
  23645751.5174         40.600          25.8004
 110544117.590 8  86138253.32447  21035843.263
  21035836.0694         48.300          42.2004
 108819480.135 8  84794368.74747  20707651.619
  20707640.9084         51.400          43.3004
 113441706.001 7  88396096.98646  21587241.584
  21587234.9764         46.800          39.8004
 116407186.491 7  90706863.93145  22151551.656
  22151542.0014         45.400          34.6004
 107927874.580 8  84099598.54347  20537987.842
  20537975.0804         51.600          44.7004
 128120017.935 6  99833760.65043  24380420.784
  24380415.3484         40.400          22.0004
 125530693.686 6  97816085.67444  23887701.114
  23887694.5654         40.600          26.3004
 18  1  8 20  0 14.0000000  0 10G26G23G11G03G31G01G14G22G25G32
 128253049.206 6  99937442.12243  24405740.299
  24405734.7464         37.000          21.5004
 122760386.031 7  95657399.54244  23360520.861
  23360508.7444         46.700          29.1004
 124262390.406 6  96827782.60844  23646353.029
  23646343.6674         41.100          25.7004
 110542181.745 8  86136744.87747  21035474.899
  21035467.2944         48.400          42.0004
 108820440.221 8  84795116.87147  20707834.274
  20707823.3884         51.200          43.3004
 113443634.198 7  88397599.47446  21587608.311
  21587602.1134         46.600          39.8004
 116409437.059 7  90708617.61945  22151979.864
  22151970.1504         45.300          34.6004
 107927170.330 8  84099049.77547  20537854.161
  20537841.1654         51.900          44.8004
 128120694.963 6  99834288.20043  24380550.620
  24380544.1294         40.600          22.2004
 125533642.384 6  97818383.34644  23888261.554
  23888255.1814         40.100          26.7004
 18  1  8 20  0 15.0000000  0 10G26G23G11G03G31G01G14G22G25G32
 128249958.366 6  99935033.68543  24405151.470
  24405146.5624         36.900          21.5004
 122757830.703 7  95655408.38344  23360034.088
  23360022.5574         46.100          28.6004
 124265503.956 6  96830208.74444  23646945.534
  23646935.9964         41.100          24.7004
 110540246.058 8  86135236.55046  21035106.822
  21035099.2764         48.300          41.9004
 108821400.735 8  84795865.31547  20708017.291
  20708006.2874         50.800          43.3004
 113445562.771 7  88399102.26246  21587975.347
  21587968.5644         46.200          39.6004
 116411687.581 7  90710371.27845  22152408.280
  22152398.5074         45.600          34.8004
 107926466.307 8  84098501.18747  20537719.952
  20537707.0724         51.700          44.8004
 128121372.461 6  99834816.11643  24380679.745
  24380673.0794         40.500          22.3004
 125536590.910 6  97820680.89644  23888823.098
  23888816.3734         40.900          26.4004
 18  1  8 20  0 16.0000000  0 10G26G23G11G03G31G01G14G22G25G32
 128246867.656 6  99932625.33343  24404563.675
  24404558.4154         37.100          21.5004
 122755275.599 7  95653417.39544  23359548.192
  23359536.0754         46.000          29.2004
 124268617.828 6  96832635.14143  23647538.317
  23647528.9554         40.800          23.6004
 110538310.790 8  86133728.55446  21034738.504
  21034731.0174         48.400          41.9004
 108822361.972 8  84796614.33247  20708200.207
  20708189.2034         51.000          43.4004
 113447491.938 7  88400605.50646  21588342.218
  21588336.2554         46.900          39.5004
 116413938.335 7  90712125.11245  22152836.539
  22152826.3564         45.500          34.9004
 107925762.801 8  84097952.99647  20537585.976
  20537573.2144         51.500          44.9004
 128122050.662 6  99835344.60243  24380809.017
  24380801.7654         40.800          22.8004
 125539539.559 6  97822978.53144  23889384.375
  23889377.5914         41.300          27.3004
 18  1  8 20  0 17.0000000  0 10G26G23G11G03G31G01G14G22G25G32
 128243777.275 6  99930217.23643  24403975.295
  24403970.3874         36.800          20.9004
 122752720.784 7  95651426.63844  23359061.921
  23359050.0974         46.100          29.1004
 124271732.044 6  96835061.80943  23648130.069
  23648121.1174         40.600          23.9004
 110536376.058 8  86132220.96546  21034370.309
  21034362.5294         48.400          41.8004
 108823324.007 8  84797363.96747  20708383.283
  20708372.5734         51.300          43.4004
 113449421.853 7  88402109.33346  21588709.489
  21588703.1164         47.200          39.3004
 116416189.434 7  90713879.21745  22153264.649
  22153255.1694         46.000          34.5004
 107925059.902 8  84097405.28347  20537452.472
  20537439.2994         51.500          44.7004
 128122729.674 6  99835873.69043  24380937.833
  24380931.0494         40.900          22.2004
 125542488.455 6  97825276.36744  23889945.818
  23889938.5654         41.300          26.7004
 18  1  8 20  0 18.0000000  0 10G26G23G11G03G31G01G14G22G25G32
 128240686.676 6  99927808.98643  24403387.135
  24403382.2274         36.500          20.9004
 122750165.858 7  95649435.77944  23358575.492
  23358563.5504         46.000          29.8004
 124274846.226 6  96837488.43343  23648723.501
  23648714.3724         40.800          23.0004
 110534441.409 8  86130713.45046  21034002.254
  21033994.2984         48.800          41.9004
 108824286.434 8  84798113.91847  20708566.463
  20708555.5764         51.300          43.4004
 113451352.034 7  88403613.36646  21589076.653
  21589070.8074         47.300          39.4004
 116418440.431 7  90715633.23545  22153693.258
  22153683.4264         46.200          34.4004
 107924357.199 8  84096857.72147  20537318.360
  20537305.4814         51.500          44.6004
 128123409.046 6  99836403.06243  24381066.820
  24381060.5634         41.100          22.0004
 125545437.149 6  97827574.05344  23890506.688
  23890499.6704         41.300          26.7004
 18  1  8 20  0 19.0000000  0 10G26G23G11G03G31G01G14G22G25G32
 128237596.462 6  99925401.04143  24402799.277
  24402793.9004         36.100          21.1004
 122747611.370 7  95647445.26744  23358088.807
  23358077.6864         46.100          29.2004
 124277960.891 6  96839915.44444  23649315.876
  23649306.3384         40.500          24.6004
 110532507.391 8  86129206.41946  21033633.831
  21033625.8764         48.600          41.9004
 108825249.753 8  84798864.55247  20708749.781
  20708739.0704         50.800          43.3004
 113453283.065 7  88405118.07146  21589444.128
  21589438.0474         47.100          39.2004
 116420691.869 7  90717387.60145  22154122.032
  22154112.0244         46.000          34.0004
 107923655.185 8  84096310.69547  20537184.609
  20537171.9654         51.400          44.8004
 128124089.365 6  99836933.18143  24381196.739
  24381189.8384         40.400          22.0004
 125548386.118 6  97829871.95844  23891067.886
  23891060.8094         41.400          27.2004
 18  1  8 20  0 20.0000000  0 10G26G23G11G03G31G01G14G22G25G32
 128234506.429 6  99922993.21743  24402210.870
  24402206.4904         36.300          21.1004
 122745057.029 7  95645454.86944  23357603.408
  23357591.7594         45.500          29.6004
 124281075.810 6  96842342.65444  23649908.394
  23649899.3254         41.100          24.9004
 110530573.764 8  86127699.70546  21033266.046
  21033258.3254         48.300          41.9004
 108826213.757 8  84799615.72247  20708933.151
  20708922.3234         50.500          43.4004
 113455214.655 7  88406623.20646  21589811.668
  21589805.9984         47.000          39.2004
 116422943.511 7  90719142.12345  22154550.588
  22154540.2304         46.000          33.7004
 107922953.669 8  84095764.06447  20537051.166
  20537038.5794         51.200          44.7004
 128124770.361 6  99837463.83543  24381325.999
  24381319.9184         40.400          22.2004
 125551335.256 6  97832169.98544  23891628.979
  23891622.0784         41.100          26.5004
 18  1  8 20  0 21.0000000  0 10G26G23G11G03G31G01G14G22G25G32
 128231415.975 5  99920585.07543  24401622.466
  24401617.8514         35.900          21.5004
 122742502.376 7  95643464.23244  23357116.957
  23357105.7194         45.700          29.6004
 124284190.543 6  96844769.71444  23650501.718
  23650492.1794         41.200          25.5004
 110528640.045 8  86126192.91247  21032897.851
  21032890.1894         48.000          42.0004
 108827177.946 8  84800367.03547  20709116.856
  20709105.9704         50.300          43.4004
 113457146.384 7  88408128.44646  21590179.116
  21590174.1494         46.800          39.4004
 116425194.868 7  90720896.42945  22154978.595
  22154968.8224         45.900          34.3004
 107922252.138 8  84095217.41147  20536917.496
  20536904.7934         51.600          44.7004
 128125451.526 6  99837994.61343  24381455.981
  24381449.4324         40.400          21.8004
 125554283.970 6  97834467.67444  23892189.911
  23892183.3614         40.800          27.8004
 18  1  8 20  0 22.0000000  0 10G26G23G11G03G31G01G14G22G25G32
 128228326.488 6  99918177.68643  24401035.439
  24401030.1214         36.000          21.7004
 122739948.690 7  95641474.35444  23356631.322
  23356619.4984         45.600          29.5004
 124287306.255 6  96847197.54244  23651093.922
  23651084.7354         40.700          24.6004
 110526707.496 8  86124687.03046  21032529.808
  21032522.5554         48.400          41.9004
 108828143.606 8  84801119.49547  20709300.394
  20709289.6244         50.800          43.6004
 113459079.458 7  88409634.73846  21590547.075
  21590541.4644         46.700          39.6004
 116427447.221 7  90722651.51045  22155407.239
  22155397.4664         45.800          34.1004
 107921551.879 8  84094671.75747  20536784.527
  20536771.7654         51.300          44.7004
 128126134.186 6  99838526.55743  24381585.373
  24381579.0004         40.400          22.0004
 125557233.600 6  97836766.08444  23892751.580
  23892744.6214         40.600          28.1004
 18  1  8 20  0 23.0000000  0 10G26G23G11G03G31G01G14G22G25G32
 128225236.324 6  99915769.78143  24400447.093
  24400442.4194         36.300          21.5004
 122737394.382 7  95639483.98544  23356145.091
  23356133.6774         45.100          29.9004
 124290421.435 6  96849624.94844  23651686.768
  23651677.8744         40.600          24.7004
 110524774.552 8  86123180.83347  21032161.869
  21032154.4414         48.000          42.0004
 108829109.140 8  84801871.86147  20709484.027
  20709473.2584         50.900          43.3004
 113461012.348 7  88411140.87846  21590914.894
  21590909.0484         46.300          39.5004
 116429698.970 7  90724406.11645  22155835.586
  22155825.7544         46.000          34.4004
 107920851.291 8  84094125.85347  20536650.984
  20536638.5154         51.200          44.5004
 128126816.719 6  99839058.39643  24381715.559
  24381709.0684         40.300          22.2004
 125560182.502 6  97839063.93244  23893312.572
  23893305.4954         41.000          27.9004
 18  1  8 20  0 24.0000000  0 10G26G23G11G03G31G01G14G22G25G32
 128222146.470 6  99913362.09943  24399859.161
  24399853.9014         36.500          21.5004
 122734840.458 7  95637493.90845  23355658.553
  23355647.3744         45.000          30.4004
 124293537.057 6  96852052.70344  23652280.293
  23652270.5214         40.200          24.1004
 110522842.179 7  86121675.08947  21031794.742
  21031786.9044         47.700          42.2004
 108830075.542 8  84802624.90447  20709668.007
  20709657.5904         50.200          43.2004
 113462946.001 7  88412647.62046  21591282.923
  21591276.9014         46.500          39.7004
 116431951.119 7  90726161.03845  22156263.870
  22156254.3314         46.300          33.5004
 107920151.371 8  84093580.45747  20536517.976
  20536505.3314         50.700          44.6004
 128127500.117 6  99839590.90743  24381845.545
  24381838.7034         40.400          22.2004
 125563131.695 6  97841361.99544  23893873.472
  23893866.9814         40.700          28.3004
 18  1  8 20  0 25.0000000  0 10G26G23G11G03G31G01G14G22G25G32
 128219056.914 6  99910954.64843  24399271.235
  24399266.3854         36.400          21.3004
 122732286.808 7  95635504.04845  23355172.738
  23355161.6174         45.100          30.4004
 124296653.059 6  96854480.75144  23652872.925
  23652863.4454         39.900          25.6004
 110520910.345 8  86120169.76747  21031426.910
  21031419.0714         48.200          42.3004
 108831042.753 8  84803378.57247  20709852.061
  20709841.2334         50.700          43.1004
 113464880.388 7  88414154.93746  21591651.346
  21591645.3244         47.000          39.9004
 116434203.601 7  90727916.21845  22156692.942
  22156682.9354         46.100          33.9004
 107919452.066 8  84093035.53947  20536385.014
  20536372.3104         50.700          44.5004
 128128184.321 6  99840124.05943  24381975.686
  24381968.8444         40.600          21.7004
 125566081.122 6  97843660.25044  23894434.714
  23894428.4574         41.100          27.1004
 18  1  8 20  0 26.0000000  0 10G26G23G11G03G31G01G14G22G25G32
 128215967.482 6  99908547.29443  24398683.384
  24398678.4174         36.700          21.5004
 122729733.326 7  95633514.32745  23354687.002
  23354675.6464         45.300          30.4004
 124299769.330 6  96856909.01344  23653466.511
  23653456.6214         40.500          24.2004
 110518978.864 8  86118664.71847  21031059.443
  21031052.1314         48.100          42.3004
 108832010.644 8  84804132.77047  20710036.237
  20710025.7614         50.700          43.2004
 113466815.350 7  88415662.70346  21592019.683
  21592013.5444         47.400          39.7004
 116436456.266 7  90729671.54245  22157121.626
  22157111.5024         46.400          34.3004
 107918753.218 8  84092490.99047  20536251.725
  20536239.0804         50.900          44.4004
 128128869.208 6  99840657.74643  24382106.586
  24382099.2744         40.900          21.8004
 125569030.612 6  97845958.55144  23894995.686
  23894989.8404         40.800          26.8004
 18  1  8 20  0 27.0000000  0 10G26G23G11G03G31G01G14G22G25G32
 128212877.955 6  99906139.88143  24398095.263
  24398090.4724         36.100          21.3004
 122727179.831 7  95631524.59045  23354200.863
  23354189.6254         45.500          30.2004
 124302885.619 6  96859337.29444  23654058.595
  23654049.4084         40.400          24.7004
 110517047.595 8  86117159.83347  21030691.736
  21030683.8394         48.900          42.1004
 108832978.990 8  84804887.32847  20710220.389
  20710209.9134         51.200          43.3004
 113468750.717 7  88417170.78046  21592387.910
  21592381.5954         47.600          40.0004
 116438708.942 7  90731426.87445  22157550.323
  22157540.0224         46.600          34.5004
 107918054.661 8  84091946.66047  20536118.931
  20536106.5794         51.500          44.5004
 128129554.589 6  99841191.81943  24382237.280
  24382229.6174         41.200          21.8004
 125571980.007 6  97848256.78644  23895556.791
  23895550.5354         40.900          27.5004
 18  1  8 20  0 28.0000000  0 10G26G23G11G03G31G01G14G22G25G32
 128209788.549 5  99903732.56343  24397507.284
  24397502.6684         35.200          21.5004
 122724626.472 7  95629534.95545  23353715.027
  23353703.7314         45.600          30.4004
 124306002.123 6  96861765.74044  23654652.488
  23654642.8324         40.700          25.1004
 110515116.662 8  86115655.20747  21030324.393
  21030317.0234         48.900          42.4004
 108833947.980 8  84805642.38247  20710404.724
  20710394.1314         51.300          43.3004
 113470686.606 7  88418679.26146  21592756.467
  21592750.0354         47.200          40.1004
 116440961.777 7  90733182.33145  22157978.910
  22157968.9614         46.300          34.1004
 107917356.533 8  84091402.65947  20535986.088
  20535973.5024         51.100          44.5004
 128130240.606 6  99841726.37743  24382367.566
  24382360.3724         41.300          21.8004
 125574929.467 6  97850555.07144  23896118.263
  23896112.2994         40.400          26.7004
 18  1  8 20  0 29.0000000  0 10G26G23G11G03G31G01G14G22G25G32
 128206699.447 5  99901325.49043  24396919.311
  24396914.8134         35.500          21.5004
 122722073.433 7  95627545.57844  23353229.471
  23353218.1164         45.900          29.6004
 124309119.052 6  96864194.51444  23655245.125
  23655235.7044         40.600          25.4004
 110513186.295 8  86114151.02547  21029957.182
  21029948.9914         48.800          42.4004
 108834917.795 8  84806398.08047  20710589.160
  20710578.5674         50.800          43.3004
 113472623.265 7  88420188.34246  21593124.685
  21593118.5464         47.700          40.1004
 116443214.967 7  90734938.05445  22158407.543
  22158397.4774         46.300          34.4004
 107916659.062 8  84090859.17747  20535853.355
  20535840.7114         51.200          44.5004
 128130927.424 6  99842261.55243  24382498.225
  24382490.9134         41.700          22.0004
 125577879.201 6  97852853.55244  23896679.525
  23896673.6204         40.400          26.5004
 18  1  8 20  0 30.0000000  0 10G26G23G11G03G31G01G14G22G25G32
 128203610.496 5  99898918.51743  24396331.404
  24396326.9064         35.400          21.3004
 122719520.571 7  95625556.33644  23352743.494
  23352732.3734         45.500          29.6004
 124312236.202 6  96866623.45044  23655838.200
  23655828.8384         40.000          24.2004
 110511256.305 7  86112647.13847  21029590.130
  21029581.8224         47.700          42.3004
 108835888.295 8  84807154.31647  20710774.028
  20710763.4354         50.400          43.5004
 113474560.492 7  88421697.86746  21593493.672
  21593487.5334         47.300          40.1004
 116445468.358 7  90736693.94345  22158836.205
  22158826.2574         46.000          34.2004
 107915962.049 8  84090316.05347  20535720.974
  20535708.4474         51.000          44.5004
 128131614.971 6  99842797.30243  24382628.959
  24382621.5314         41.600          22.2004
 125580828.991 6  97855152.08644  23897240.837
  23897234.8744         40.000          26.7004
 18  1  8 20  0 31.0000000  0 10G26G23G11G03G31G01G14G22G25G32
 128200521.495 5  99896511.50343  24395743.250
  24395738.9864         35.500          21.1004
 122716967.700 7  95623567.08844  23352257.476
  23352246.0624         45.600          28.9004
 124315353.443 6  96869052.47443  23656431.672
  23656422.0754         40.200          23.9004
 110509326.524 8  86111143.41047  21029222.555
  21029214.7164         48.100          42.2004
 108836859.281 8  84807910.92547  20710958.775
  20710948.0654         50.700          43.6004
 113476498.138 7  88423207.71946  21593862.246
  21593855.9904         47.600          39.6004
 116447721.779 7  90738449.85345  22159265.613
  22159255.3134         45.800          34.2004
 107915265.327 8  84089773.14647  20535588.425
  20535575.4874         51.100          44.7004
 128132302.984 6  99843333.42743  24382759.669
  24382752.7684         41.500          22.3004
 125583778.678 6  97857450.54744  23897802.897
  23897796.1724         40.000          27.1004
 18  1  8 20  0 32.0000000  0 10G26G23G11G03G31G01G14G22G25G32
 128197432.775 6  99894104.70443  24395155.197
  24395151.1094         36.400          20.9004
 122714415.230 7  95621578.15244  23351772.095
  23351760.9164         45.400          29.4004
 124318471.144 6  96871481.84144  23657023.981
  23657015.6154         40.600          24.8004
 110507397.370 8  86109640.16947  21028855.184
  21028847.6974         48.100          42.1004
 108837831.152 8  84808668.22847  20711143.678
  20711133.0264         50.500          43.7004
 113478436.592 7  88424718.20746  21594231.367
  21594224.8774         47.500          39.7004
 116449975.612 7  90740206.09145  22159694.139
  22159684.4834         45.300          34.6004
 107914569.310 8  84089230.80047  20535455.989
  20535443.2864         51.300          44.7004
 128132991.929 6  99843870.26243  24382891.083
  24382883.4204         41.300          22.0004
 125586728.711 6  97859749.28244  23898363.327
  23898357.3644         40.100          27.8004
 18  1  8 20  0 33.0000000  0 10G26G23G11G03G31G01G14G22G25G32
 128194343.897 6  99891697.77143  24394567.366
  24394563.6304         36.500          20.6004
 122711862.548 7  95619589.04745  23351285.678
  23351275.0264         45.300          30.0004
 124321588.754 6  96873911.14644  23657618.587
  23657608.4634         40.100          24.8004
 110505468.259 8  86108136.97247  21028488.148
  21028480.3094         48.200          42.3004
 108838803.359 8  84809425.79347  20711328.657
  20711318.1224         50.600          43.7004
 113480375.261 8  88426228.85846  21594600.294
  21594594.1554         48.000          40.0004
 116452229.297 7  90741962.21245  22160122.677
  22160112.8454         45.500          34.1004
 107913873.407 8  84088688.53647  20535323.190
  20535310.9564         51.000          44.8004
 128133681.136 6  99844407.30743  24383021.822
  24383014.8624         41.300          22.2004
 125589678.482 6  97862047.80944  23898924.557
  23898919.0044         40.300          27.3004
 18  1  8 20  0 34.0000000  0 10G26G23G11G03G31G01G14G22G25G32
 128191255.359 6  99889291.13943  24393980.308
  24393975.6934         36.300          21.3004
 122709310.276 7  95617600.26445  23350800.409
  23350789.5224         45.300          30.0004
 124324706.798 6  96876340.80244  23658211.532
  23658201.8764         40.200          25.3004
 110503539.694 8  86106634.19247  21028121.612
  21028113.7154         48.500          42.4004
 108839776.428 8  84810184.02747  20711513.750
  20711503.0984         50.900          43.4004
 113482314.725 8  88427740.12346  21594969.065
  21594963.1024         48.000          40.0004
 116454483.390 7  90743718.64945  22160551.563
  22160541.8494         45.000          33.8004
 107913178.190 8  84088146.80847  20535191.063
  20535178.4184         51.000          44.5004
 128134371.283 6  99844945.06443  24383153.854
  24383146.3094         41.200          22.2004
 125592628.544 6  97864346.55944  23899485.730
  23899480.3534         39.200          27.5004
 18  1  8 20  0 35.0000000  0 10G26G23G11G03G31G01G14G22G25G32
 128188166.762 5  99886884.44843  24393391.825
  24393387.9714         35.800          20.9004
 122706757.995 7  95615611.47945  23350314.614
  23350303.5524         45.200          30.3004
 124327824.958 6  96878770.54444  23658805.054
  23658795.3984         40.900          24.6004
 110501611.410 7  86105131.63447  21027754.630
  21027746.3814         47.700          42.3004
 108840750.009 8  84810942.66247  20711699.128
  20711688.4174         50.800          43.3004
 113484254.627 7  88429251.73546  21595338.627
  21595332.2534         47.900          40.1004
 116456737.499 7  90745475.09745  22160980.601
  22160970.8284         44.600          34.0004
 107912483.290 8  84087605.32147  20535059.132
  20535046.3704         51.300          44.4004
 128135061.919 6  99845483.21843  24383284.667
  24383277.5324         40.800          22.3004
 125595578.564 6  97866645.26544  23900047.388
  23900041.9534         39.200          26.5004
 18  1  8 20  0 36.0000000  0 10G26G23G11G03G31G01G14G22G25G32
 128185078.298 5  99884477.87243  24392804.132
  24392800.1034         35.500          20.4004
 122704205.848 7  95613622.79444  23349829.247
  23349818.1854         45.200          29.8004
 124330943.299 6  96881200.41643  23659398.452
  23659389.0314         41.200          23.4004
 110499683.424 8  86103629.30147  21027387.153
  21027379.9004         48.000          42.1004
 108841724.219 8  84811701.79147  20711884.408
  20711873.8734         50.800          43.1004
 113486195.049 8  88430763.75146  21595707.452
  21595701.1384         48.200          40.3004
 116458991.773 7  90747231.66845  22161409.714
  22161400.0594         44.400          34.2004
 107911788.816 8  84087064.17647  20534926.758
  20534914.1134         50.900          44.5004
 128135753.211 6  99846021.89043  24383416.043
  24383408.7914         40.700          22.5004
 125598528.593 6  97868943.98944  23900609.456
  23900603.1994         38.900          26.7004
 18  1  8 20  0 37.0000000  0 10G26G23G11G03G31G01G14G22G25G32
 128181990.066 5  99882071.45143  24392217.221
  24392212.8404         35.500          20.6004
 122701653.992 7  95611634.33844  23349343.649
  23349332.4704         45.500          29.3004
 124334062.012 6  96883630.57244  23659992.271
  23659982.3814         40.400          25.3004
 110497755.985 8  86102127.40847  21027020.795
  21027013.1904         48.800          42.2004
 108842699.212 8  84812461.52447  20712069.989
  20712059.5724         51.300          43.3004
 113488136.198 8  88432276.33246  21596077.143
  21596070.9454         48.500          40.0004
 116461246.368 7  90748988.48445  22161838.107
  22161828.7444         44.900          33.9004
 107911094.925 8  84086523.48647  20534794.781
  20534781.6084         51.000          44.4004
 128136445.258 6  99846561.16643  24383547.541
  24383540.4054         40.600          22.2004
 125601478.848 6  97871242.88744  23901170.345
  23901164.4404         38.700          26.5004
 18  1  8 20  0 38.0000000  0 10G26G23G11G03G31G01G14G22G25G32
 128178901.828 5  99879665.03143  24391629.092
  24391625.2394         34.300          20.4004
 122699102.183 7  95609645.91044  23348857.387
  23348846.3844         45.400          29.4004
 124337180.843 6  96886060.83444  23660585.178
  23660575.4644         40.400          24.2004
 110495828.786 8  86100625.69147  21026654.188
  21026646.5254         49.100          42.1004
 108843674.765 8  84813221.69947  20712255.772
  20712245.4724         51.600          43.3004
 113490077.794 8  88433789.26946  21596446.795
  21596440.3634         48.400          40.0004
 116463501.031 7  90750745.37145  22162267.618
  22162258.1974         45.200          34.2004
 107910401.394 8  84085983.07547  20534662.838
  20534650.1934         51.500          44.4004
 128137137.873 6  99847100.86443  24383679.478
  24383672.0494         40.400          22.0004
 125604429.085 6  97873541.77644  23901731.536
  23901726.0414         39.200          26.2004
 18  1  8 20  0 39.0000000  0 10G26G23G11G03G31G01G14G22G25G32
 128175813.913 5  99877258.87143  24391041.431
  24391037.4614         34.800          20.6004
 122696550.725 7  95607657.76644  23348372.616
  23348360.9094         45.900          29.6004
 124340300.100 6  96888491.42343  23661179.094
  23661169.5554         40.900          23.4004
 110493902.165 8  86099124.43047  21026287.222
  21026279.6764         48.400          42.2004
 108844651.156 8  84813982.51747  20712441.382
  20712430.7884         50.900          43.3004
 113492020.152 7  88435302.78746  21596816.114
  21596810.2094         47.600          40.3004
 116465756.065 7  90752502.53345  22162697.127
  22162687.2964         44.700          33.9004
 107909708.512 8  84085443.16647  20534531.111
  20534518.5254         51.500          44.4004
 128137831.390 6  99847641.26043  24383811.983
  24383804.3794         40.500          22.5004
 125607379.526 6  97875840.81244  23902293.487
  23902287.5244         39.800          27.0004
 18  1  8 20  0 40.0000000  0 10G26G23G11G03G31G01G14G22G25G32
 128172726.001 5  99874852.69943  24390453.582
  24390450.0224         34.800          20.4004
 122693999.299 7  95605669.64244  23347887.494
  23347875.6114         45.400          29.8004
 124343419.473 6  96890922.09043  23661772.617
  23661763.0784         40.700          23.4004
 110491975.785 8  86097623.35347  21025920.816
  21025912.9184         48.200          42.1004
 108845628.067 8  84814743.74547  20712627.348
  20712617.1654         50.500          43.3004
 113493962.954 7  88436816.65746  21597185.618
  21597179.9484         47.000          40.3004
 116468011.157 7  90754259.75545  22163126.065
  22163116.3504         45.000          33.9004
 107909015.953 8  84084903.50747  20534399.039
  20534386.5704         51.900          44.5004
 128138525.387 6  99848182.03943  24383943.578
  24383936.2084         40.700          22.8004
 125610329.982 6  97878139.87444  23902854.393
  23902848.8404         39.800          25.8004
 18  1  8 20  0 41.0000000  0 10G26G23G11G03G31G01G14G22G25G32
 128169638.039 5  99872446.51043  24389866.066
  24389862.1554         34.700          20.9004
 122691447.852 7  95603681.50744  23347401.722
  23347390.2494         45.200          29.4004
 124346538.897 6  96893352.79443  23662366.474
  23662356.4674         40.400          22.9004
 110490049.597 7  86096122.42547  21025554.397
  21025546.6764         47.600          42.1004
 108846605.474 8  84815505.36647  20712813.395
  20712803.1534         50.600          43.5004
 113495906.135 7  88438330.82546  21597555.585
  21597549.5044         47.000          40.3004
 116470266.244 7  90756016.96645  22163554.717
  22163545.5894         44.800          33.8004
 107908323.711 8  84084364.09947  20534267.468
  20534254.9404         52.100          44.7004
 128139219.883 6  99848723.20743  24384075.771
  24384068.7534         40.800          22.8004
 125613280.327 6  97880438.84744  23903416.407
  23903410.3854         39.700          25.6004
 18  1  8 20  0 42.0000000  0 10G26G23G11G03G31G01G14G22G25G32
 128166550.236 5  99870040.44543  24389278.517
  24389274.9574         34.100          21.1004
 122688896.608 7  95601693.52444  23346916.304
  23346904.8914         44.900          29.2004
 124349658.613 6  96895783.74743  23662959.962
  23662950.1904         40.200          22.8004
 110488123.857 7  86094621.84947  21025187.556
  21025180.0114         47.600          42.1004
 108847583.614 8  84816267.54947  20712999.395
  20712988.9784         50.700          43.4004
 113497849.975 7  88439845.50046  21597925.147
  21597919.1844         46.500          40.3004
 116472521.596 7  90757774.38045  22163984.149
  22163974.3764         44.600          33.8004
 107907631.987 8  84083825.09447  20534135.980
  20534122.8084         52.200          44.7004
 128139915.140 6  99849264.97543  24384208.244
  24384200.9334         40.800          22.6004
 125616230.832 6  97882737.95344  23903977.732
  23903972.1794         40.000          25.3004
 18  1  8 20  0 43.0000000  0 10G26G23G11G03G31G01G14G22G25G32
 128163462.750 5  99867634.61043  24388691.030
  24388686.8254         35.100          21.1004
 122686345.724 7  95599705.81944  23346430.295
  23346419.5264         45.200          29.4004
 124352778.724 6  96898215.00644  23663553.505
  23663544.2014         40.600          24.3004
 110486198.664 7  86093121.70247  21024821.500
  21024813.5444         47.900          42.1004
 108848562.548 8  84817030.35347  20713185.659
  20713175.4184         50.700          43.4004
 113499794.538 7  88441360.74646  21598295.358
  21598289.3954         46.300          40.2004
 116474777.269 7  90759532.04845  22164413.500
  22164403.9034         44.700          33.8004
 107906940.865 8  84083286.55447  20534004.365
  20533991.4284         52.000          44.5004
 128140611.183 6  99849807.35743  24384340.022
  24384333.1214         40.400          22.5004
 125619181.518 6  97885037.17244  23904539.152
  23904533.3654         40.700          25.6004
 18  1  8 20  0 44.0000000  0 10G26G23G11G03G31G01G14G22G25G32
 128160374.951 5  99865228.54343  24388103.686
  24388099.2474         35.200          20.9004
 122683794.601 7  95597717.93244  23345945.391
  23345933.8604         45.400          29.1004
 124355898.687 6  96900646.14444  23664147.434
  23664137.8964         40.800          25.2004
 110484273.460 7  86091621.53847  21024455.018
  21024447.1214         47.900          42.0004
 108849541.787 8  84817793.40147  20713372.098
  20713361.8564         51.100          43.6004
 113501739.317 7  88442876.15846  21598665.714
  21598659.2814         46.800          39.9004
 116477032.787 7  90761289.59745  22164842.462
  22164832.9834         45.200          33.9004
 107906249.861 8  84082748.10847  20533872.870
  20533860.1084         52.200          44.4004
 128141307.524 6  99850349.95243  24384472.670
  24384465.9454         39.400          22.3004
 125622131.943 6  97887336.21344  23905100.711
  23905094.6314         40.100          26.0004
 18  1  8 20  0 45.0000000  0 10G26G23G11G03G31G01G14G22G25G32
 128157287.787 5  99862822.95743  24387515.898
  24387511.8694         34.900          20.6004
 122681244.113 7  95595730.54544  23345459.997
  23345448.5254         45.600          29.7004
 124359019.370 6  96903077.85744  23664740.718
  23664731.5314         40.800          24.6004
 110482349.120 7  86090122.05447  21024088.923
  21024081.4364         47.700          42.1004
 108850522.149 8  84818557.31647  20713558.587
  20713548.1704         51.000          43.5004
 113503685.132 7  88444392.37446  21599035.733
  21599029.7704         47.400          40.0004
 116479288.961 7  90763047.65345  22165272.333
  22165262.5604         44.500          33.6004
 107905559.765 8  84082210.37147  20533741.628
  20533728.8074         52.100          44.2004
 128142005.010 6  99850893.43343  24384605.343
  24384598.9114         38.900          22.5004
 125625082.937 6  97889635.68844  23905662.535
  23905656.5724         40.400          26.2004
 18  1  8 20  0 46.0000000  0 10G26G23G11G03G31G01G14G22G25G32
 128154200.601 5  99860417.34443  24386929.137
  24386924.4054         35.400          20.9004
 122678693.634 7  95593743.15945  23344974.577
  23344963.5144         45.100          30.0004
 124362140.125 6  96905509.62344  23665335.756
  23665325.7494         40.800          24.0004
 110480424.966 7  86088622.71546  21023722.822
  21023715.1594         47.600          41.9004
 108851503.004 8  84819321.61947  20713745.220
  20713734.6864         50.800          43.7004
 113505631.343 7  88445908.90146  21599406.422
  21599400.3414         47.300          40.2004
 116481545.118 7  90764805.70045  22165701.513
  22165691.9164         44.700          33.6004
 107904869.990 8  84081672.88447  20533610.567
  20533597.6874         51.900          44.5004
 128142703.005 6  99851437.31943  24384738.098
  24384731.3144         38.700          22.5004
 125628033.872 6  97891935.12144  23906223.767
  23906217.5704         40.200          25.7004
 18  1  8 20  0 47.0000000  0 10G26G23G11G03G31G01G14G22G25G32
 128151113.141 5  99858011.55543  24386340.271
  24386336.9454         35.200          20.9004
 122676142.913 7  95591755.58145  23344489.235
  23344477.8214         45.200          30.5004
 124365260.739 6  96907941.25043  23665929.776
  23665919.5344         40.200          22.8004
 110478500.831 7  86087123.39546  21023356.791
  21023348.6604         47.900          41.8004
 108852484.152 8  84820086.15647  20713932.107
  20713921.2214         50.800          43.7004
 113507577.730 7  88447425.56746  21599776.831
  21599770.3414         47.200          40.1004
 116483801.130 7  90766563.62745  22166130.553
  22166120.7224         44.300          33.6004
 107904180.285 8  84081135.45247  20533479.180
  20533466.1834         51.900          44.4004
 128143401.259 6  99851981.41443  24384870.507
  24384864.0174         39.200          22.5004
 125630984.451 6  97894234.27644  23906785.354
  23906779.5084         39.800          25.4004
 18  1  8 20  0 48.0000000  0 10G26G23G11G03G31G01G14G22G25G32
 128148026.346 5  99855606.26543  24385752.604
  24385749.3954         34.900          20.6004
 122673592.907 7  95589768.56044  23344003.894
  23343992.7154         45.000          29.9004
 124368382.116 6  96910373.47843  23666523.272
  23666513.3234         39.700          22.5004
 110476577.615 7  86085624.78547  21022990.495
  21022983.4184         47.800          42.0004
 108853466.484 8  84820851.60547  20714118.993
  20714108.1654         51.000          43.5004
 113509525.277 7  88448943.13446  21600147.439
  21600141.1244         47.000          40.3004
 116486057.823 7  90768322.08945  22166560.663
  22166550.3044         44.700          33.3004
 107903491.593 8  84080598.79947  20533348.135
  20533335.0214         51.900          44.5004
 128144100.735 6  99852526.45743  24385004.197
  24384996.9444         39.400          22.3004
 125633935.682 6  97896533.94244  23907347.122
  23907340.8664         40.200          24.7004
 18  1  8 20  0 49.0000000  0 10G26G23G11G03G31G01G14G22G25G32
 128144939.264 5  99853200.74043  24385165.975
  24385161.9464         34.600          20.1004
 122671042.642 7  95587781.34545  23343518.168
  23343507.2234         45.400          30.2004
 124371503.319 6  96912805.57443  23667117.274
  23667107.0914         40.100          22.6004
 110474654.350 8  86084126.13647  21022624.391
  21022616.9634         48.100          42.1004
 108854449.060 8  84821617.25047  20714306.204
  20714295.6704         51.500          43.7004
 113511472.948 7  88450460.79546  21600518.215
  21600511.9004         46.900          40.5004
 116488314.303 7  90770080.38845  22166989.687
  22166979.6214         44.500          33.3004
 107902802.931 8  84080062.18247  20533217.281
  20533204.4024         52.100          44.4004
 128144800.476 6  99853071.69643  24385136.869
  24385130.6714         39.900          22.8004
 125636886.569 6  97898833.33444  23907907.934
  23907902.0294         39.900          24.5004
 18  1  8 20  0 50.0000000  0 10G26G23G11G03G31G01G14G22G25G32
 128141852.621 5  99850795.57443  24384578.835
  24384574.6304         34.500          19.9004
 122668492.863 7  95585794.51044  23343033.190
  23343022.0694         45.500          29.7004
 124374625.070 6  96915238.12543  23667711.191
  23667701.2424         40.000          22.8004
 110472731.801 8  86082628.04447  21022258.526
  21022251.2734         48.500          42.1004
 108855432.626 8  84822383.66447  20714493.331
  20714482.4444         51.800          43.3004
 113513421.519 7  88451979.17046  21600888.612
  21600882.1224         47.300          40.0004
 116490571.299 7  90771839.08345  22167419.147
  22167409.3164         44.900          33.5004
 107902115.086 8  84079526.19947  20533086.192
  20533073.5484         52.300          44.4004
 128145501.182 6  99853617.70643  24385270.435
  24385263.8854         39.900          22.9004
 125639837.840 6  97901133.02244  23908470.556
  23908463.8314         39.600          25.8004
 18  1  8 20  0 51.0000000  0 10G26G23G11G03G31G01G14G22G25G32
 128138765.786 5  99848390.25243  24383991.006
  24383987.1534         34.800          19.3004
 122665942.911 7  95583807.52945  23342548.133
  23342537.0714         45.300          30.0004
 124377746.719 6  96917670.57643  23668305.427
  23668295.3614         40.200          22.6004
 110470809.272 8  86081129.97347  21021892.924
  21021885.3794         48.900          42.0004
 108856416.512 8  84823150.32847  20714680.611
  20714669.4314         52.200          43.3004
 113515370.327 7  88453497.71746  21601259.544
  21601253.2884         47.300          40.0004
 116492828.159 7  90773597.67445  22167848.180
  22167838.7594         45.000          32.5004
 107901427.357 8  84078990.30947  20532955.289
  20532942.5864         51.900          44.4004
 128146202.216 6  99854163.96843  24385403.638
  24385397.2654         39.300          23.0004
 125642788.911 6  97903432.55944  23909031.492
  23909025.2364         39.400          25.6004
 18  1  8 20  0 52.0000000  0 10G26G23G11G03G31G01G14G22G25G32
 128135679.211 5  99845985.11343  24383404.842
  24383399.9344         34.500          19.6004
 122663393.250 7  95581820.77745  23342063.081
  23342052.0784         45.200          30.5004
 124380868.745 6  96920103.32643  23668899.384
  23668889.0254         40.600          22.9004
 110468887.286 8  86079632.32247  21021527.154
  21021519.7844         49.100          42.3004
 108857401.224 8  84823917.63247  20714868.151
  20714857.4404         52.300          43.6004
 113517319.852 7  88455016.82346  21601630.771
  21601624.3984         47.900          40.1004
 116495085.348 7  90775356.51445  22168278.161
  22168268.5644         44.900          33.2004
 107900740.232 8  84078454.88147  20532824.566
  20532811.7464         51.600          44.4004
 128146904.061 6  99854710.85843  24385537.782
  24385530.8234         39.900          22.2004
 125645740.139 6  97905732.20744  23909593.084
  23909586.4764         39.900          25.2004
 18  1  8 20  0 53.0000000  0 10G26G23G11G03G31G01G14G22G25G32
 128132592.676 5  99843580.01743  24382816.456
  24382812.6034         35.000          19.9004
 122660843.712 7  95579834.13045  23341577.297
  23341566.4114         45.400          30.1004
 124383990.956 6  96922536.21743  23669493.748
  23669482.9204         41.000          23.3004
 110466965.604 8  86078134.90647  21021161.491
  21021154.1794         48.200          42.4004
 108858386.512 8  84824685.39347  20715055.569
  20715044.2724         51.900          43.7004
 113519269.891 7  88456536.34246  21602001.659
  21601995.2854         47.500          39.8004
 116497342.653 7  90777115.45545  22168708.242
  22168698.0004         45.300          33.1004
 107900053.492 8  84077919.75947  20532693.668
  20532681.2004         51.600          44.4004
 128147606.505 6  99855258.22043  24385671.600
  24385664.6994         40.500          22.3004
 125648691.410 6  97908031.89544  23910155.110
  23910148.5024         40.100          25.6004
 18  1  8 20  0 54.0000000  0 10G26G23G11G03G31G01G14G22G25G32
 128129506.254 5  99841175.01943  24382228.467
  24382225.1414         34.900          20.1004
 122658294.270 7  95577847.54645  23341092.869
  23341081.3384         45.900          30.2004
 124387113.314 6  96924969.22243  23670087.506
  23670077.6164         40.600          23.8004
 110465044.268 8  86076637.76847  21020796.572
  21020788.7344         48.200          42.6004
 108859372.420 8  84825453.63147  20715242.911
  20715232.0244         51.400          43.8004
 113521220.455 7  88458056.26046  21602372.874
  21602366.3254         46.500          39.9004
 116499600.073 7  90778874.48745  22169137.435
  22169127.3694         45.300          33.0004
 107899367.203 8  84077384.99247  20532563.068
  20532550.3064         51.400          44.4004
 128148309.596 6  99855806.07943  24385805.156
  24385798.4314         40.600          22.6004
 125651642.721 6  97910331.61844  23910716.855
  23910709.6614         40.800          25.6004
 18  1  8 20  0 55.0000000  0 10G26G23G11G03G31G01G14G22G25G32
 128126419.930 5  99838770.10943  24381641.360
  24381637.8004         34.100          20.1004
 122655744.982 7  95575861.09445  23340607.393
  23340596.1554         45.800          30.0004
 124390235.916 6  96927402.40144  23670681.911
  23670671.5524         40.700          24.9004
 110463123.289 7  86075140.89847  21020430.345
  21020422.7994         47.900          42.6004
 108860358.985 8  84826222.38747  20715430.727
  20715419.8994         51.300          43.7004
 113523171.572 7  88459576.60646  21602744.272
  21602737.6064         46.400          39.8004
 116501857.682 7  90780633.66145  22169567.176
  22169556.8764         45.300          33.0004
 107898681.346 8  84076850.56047  20532432.468
  20532419.9404         51.500          44.4004
 128149013.305 6  99856354.42943  24385939.376
  24385932.2994         40.600          22.3004
 125654594.131 6  97912631.42244  23911278.529
  23911271.5114         41.000          26.8004
 18  1  8 20  0 56.0000000  0 10G26G23G11G03G31G01G14G22G25G32
 128123333.824 5  99836365.34343  24381054.485
  24381050.9244         33.700          20.1004
 122653195.939 7  95573874.82844  23340122.331
  23340110.6244         46.100          29.9004
 124393358.865 6  96929835.85644  23671275.716
  23671266.4124         40.800          25.3004
 110461202.797 8  86073644.41347  21020064.661
  21020057.1744         48.000          42.7004
 108861346.288 8  84826991.70447  20715618.739
  20715607.8524         50.400          43.7004
 113525123.371 7  88461097.48746  21603115.765
  21603108.6294         46.600          40.2004
 116504115.611 7  90782393.08945  22169996.421
  22169986.6484         44.900          33.2004
 107897996.070 8  84076316.57647  20532302.251
  20532289.4904         51.600          44.6004
 128149717.838 6  99856903.40643  24386073.448
  24386066.6064         40.500          22.8004
 125657545.662 6  97914931.31144  23911839.796
  23911833.0124         41.000          26.3004
 18  1  8 20  0 57.0000000  0 10G26G23G11G03G31G01G14G22G25G32
 128120247.829 5  99833960.65843  24380467.156
  24380463.4204         33.900          20.1004
 122650647.057 7  95571888.67844  23339637.209
  23339626.3234         45.000          29.7004
 124396482.017 6  96932269.49444  23671870.405
  23671860.5154         40.500          24.4004
 110459282.653 7  86072148.19747  21019699.955
  21019691.6474         47.900          42.9004
 108862334.255 8  84827761.55647  20715806.463
  20715795.8114         50.700          43.4004
 113527075.718 7  88462618.80046  21603487.063
  21603480.6904         46.300          39.8004
 116506373.681 7  90784152.62145  22170426.062
  22170416.4074         45.200          33.4004
 107897311.228 8  84075782.93547  20532171.935
  20532158.9394         51.400          44.8004
 128150422.966 6  99857452.84843  24386207.828
  24386200.7514         40.400          22.8004
 125660497.299 6  97917231.28944  23912402.352
  23912394.9234         41.100          26.7004
 18  1  8 20  0 58.0000000  0 10G26G23G11G03G31G01G14G22G25G32
 128117161.904 5  99831556.05843  24379879.908
  24379876.5234         34.300          20.1004
 122648098.230 7  95569902.58345  23339152.551
  23339141.1374         45.200          30.0004
 124399605.318 6  96934703.23343  23672464.084
  23672454.4284         40.700          23.8004
 110457362.787 8  86070652.20447  21019334.423
  21019326.9944         48.000          42.7004
 108863322.758 8  84828531.81447  20715994.639
  20715983.8114         50.400          43.6004
 113529028.542 7  88464140.48046  21603858.570
  21603852.1384         46.100          39.9004
 116508631.837 7  90785912.22345  22170855.928
  22170846.3894         45.500          33.3004
 107896626.745 8  84075249.57147  20532041.425
  20532028.6634         51.300          44.7004
 128151128.652 6  99858002.73443  24386341.604
  24386335.2314         40.600          23.5004
 125663448.889 6  97919531.22444  23912964.327
  23912956.4894         41.400          26.7004
 18  1  8 20  0 59.0000000  0 10G26G23G11G03G31G01G14G22G25G32
 128114076.096 5  99829151.54443  24379292.648
  24379289.1474         34.300          19.9004
 122645549.645 7  95567916.67045  23338667.747
  23338656.3334         45.500          30.1004
 124402728.960 6  96937137.22944  23673059.278
  23673049.2714         40.400          24.7004
 110455443.402 8  86069156.57647  21018969.027
  21018961.3644         48.300          42.5004
 108864312.023 8  84829302.66847  20716182.794
  20716172.1424         50.800          43.6004
 113530982.030 7  88465662.67546  21604230.065
  21604223.8094         46.300          39.8004
 116510890.290 7  90787672.05945  22171285.628
  22171275.8554         45.900          33.4004
 107895942.841 8  84074716.65947  20531911.580
  20531898.9944         51.500          44.7004
 128151835.136 6  99858553.24143  24386476.015
  24386469.5834         41.100          23.6004
 125666400.679 6  97921831.32544  23913525.742
  23913518.4904         41.500          26.5004
 18  1  8 20  1  0.0000000  0 10G26G23G11G03G31G01G14G22G25G32
 128110990.429 5  99826747.14243  24378706.076
  24378702.1654         33.900          20.9004
 122643001.154 7  95565930.83545  23338183.001
  23338171.4704         45.700          30.4004
 124405852.745 6  96939571.35744  23673653.310
  23673643.1274         40.100          25.6004
 110453524.341 8  86067661.20647  21018604.356
  21018596.3424         48.200          42.5004
 108865301.885 8  84830073.99047  20716371.051
  20716360.6924         50.800          43.4004
 113532936.014 7  88467185.25946  21604601.887
  21604595.5724         46.600          39.7004
 116513148.837 7  90789431.96045  22171715.557
  22171705.5504         45.800          33.0004
 107895259.323 8  84074184.04347  20531781.470
  20531768.7084         51.400          44.6004
 128152542.165 6  99859104.16843  24386610.842
  24386604.0004         41.100          23.2004
 125669352.433 6  97924131.38344  23914087.634
  23914079.9724         40.900          26.3004
 18  1  8 20  1  1.0000000  0 10G26G23G11G03G31G01G14G22G25G32
 128107904.659 5  99824342.65343  24378118.548
  24378114.6954         34.500          20.4004
 122640452.607 7  95563944.95544  23337697.830
  23337685.7134         45.400          29.8004
 124408976.553 6  96942005.48844  23674247.620
  23674237.4374         40.000          25.3004
 110451605.424 8  86066165.94447  21018238.511
  21018231.0834         48.300          42.7004
 108866292.172 8  84830845.64447  20716559.478
  20716549.0614         51.000          43.3004
 113534890.368 7  88468708.13146  21604973.855
  21604967.4234         46.900          39.7004
 116515407.395 7  90791191.87645  22172145.448
  22172135.2654         45.400          33.4004
 107894576.063 8  84073651.62947  20531651.437
  20531639.0864         51.300          44.7004
 128153249.714 6  99859655.50544  24386746.096
  24386739.1364         40.200          24.9004
 125672304.124 6  97926431.40144  23914648.850
  23914641.6574         41.200          25.9004
 18  1  8 20  1  2.0000000  0 10G26G23G11G03G31G01G14G22G25G32
 128104819.196 5  99821938.39343  24377531.167
  24377528.1934         34.700          20.4004
 122637904.406 7  95561959.34844  23337212.974
  23337200.7404         45.500          29.1004
 124412100.770 6  96944439.94644  23674841.981
  23674832.3844         40.400          24.3004
 110449687.090 8  86064671.13747  21017873.491
  21017865.5354         48.200          42.6004
 108867283.325 8  84831617.97147  20716748.215
  20716737.7984         51.900          43.3004
 113536845.498 7  88470231.60846  21605345.774
  21605339.4604         47.000          39.8004
 116517666.290 7  90792952.05245  22172575.065
  22172565.1164         45.600          33.3004
 107893893.457 8  84073119.72947  20531521.239
  20531508.5944         51.500          44.8004
 128153958.050 6  99860207.45444  24386880.430
  24386874.2334         40.600          25.3004
 125675256.055 6  97928731.60844  23915211.377
  23915203.4804         41.300          26.4004
 18  1  8 20  1  3.0000000  0 10G26G23G11G03G31G01G14G22G25G32
 128101733.805 5  99819534.19543  24376945.051
  24376940.3194         35.400          20.6004
 122635356.370 7  95559973.86145  23336728.546
  23336716.3714         46.000          30.3004
 124415225.237 6  96946874.59544  23675437.158
  23675427.0344         40.400          24.1004
 110447769.101 8  86063176.60147  21017508.667
  21017500.8294         48.100          42.4004
 108868275.107 8  84832390.79147  20716936.956
  20716926.5974         51.600          43.2004
 113538801.136 7  88471755.48346  21605718.101
  21605711.4944         46.900          39.7004
 116519925.374 7  90794712.37645  22173004.694
  22172995.0384         45.300          33.0004
 107893211.293 8  84072588.17747  20531391.579
  20531378.8174         51.400          44.9004
 128154667.071 6  99860759.94144  24387015.953
  24387009.2874         40.800          24.4004
 125678208.042 6  97931031.85144  23915773.456
  23915764.7384         40.900          26.3004
 18  1  8 20  1  4.0000000  0 10G26G23G11G03G31G01G14G22G25G32
 128098648.484 5  99817130.06443  24376357.681
  24376353.3004         35.600          21.1004
 122632808.363 7  95557988.40745  23336243.517
  23336231.5764         45.800          30.4004
 124418349.791 6  96949309.30344  23676031.440
  23676021.6084         40.400          24.6004
 110445851.395 8  86061682.28347  21017143.275
  21017136.3164         48.200          42.4004
 108869267.441 8  84833164.03347  20717125.865
  20717115.2714         51.100          43.1004
 113540757.260 7  88473279.72946  21606090.293
  21606084.0954         46.900          39.8004
 116522184.545 7  90796472.77145  22173434.750
  22173425.2124         45.300          33.3004
 107892529.485 8  84072056.89947  20531261.680
  20531249.0944         51.000          44.8004
 128155376.623 6  99861312.83544  24387150.807
  24387144.0814         41.300          24.6004
 125681159.986 6  97933332.06344  23916335.354
  23916326.6364         41.100          26.2004
 18  1  8 20  1  5.0000000  0 10G26G23G11G03G31G01G14G22G25G32
 128095563.372 6  99814726.09843  24375770.842
  24375766.5204         36.300          21.3004
 122630260.645 7  95556003.16744  23335758.505
  23335747.2084         46.000          29.8004
 124421474.714 6  96951744.30844  23676626.425
  23676616.0664         40.400          24.9004
 110443934.177 7  86060188.35247  21016778.922
  21016771.3184         47.800          42.9004
 108870260.553 8  84833937.88047  20717314.890
  20717304.1794         50.000          43.1004
 113542714.060 7  88474804.50746  21606462.443
  21606456.1284         46.700          39.7004
 116524443.986 7  90798233.37345  22173864.309
  22173854.7124         45.300          32.9004
 107891848.269 8  84071526.07447  20531131.942
  20531119.6494         51.100          44.6004
 128156086.974 6  99861866.35144  24387285.402
  24387279.0874         41.400          24.7004
 125684112.131 6  97935632.43944  23916897.386
  23916888.4344         41.700          25.6004
 18  1  8 20  1  6.0000000  0 10G26G23G11G03G31G01G14G22G25G32
 128092478.216 6  99812322.07943  24375183.500
  24375179.0024         36.000          21.5004
 122627712.912 7  95554017.92544  23335273.969
  23335262.1454         46.000          29.3004
 124424599.699 6  96954179.36943  23677220.772
  23677210.5894         39.900          22.9004
 110442017.175 8  86058694.58347  21016414.067
  21016406.2284         48.400          42.8004
 108871254.142 8  84834712.10947  20717503.901
  20717493.3664         50.500          42.9004
 113544671.263 7  88476329.60346  21606835.240
  21606828.3984         47.200          39.6004
 116526703.459 7  90799994.00545  22174294.569
  22174284.9724         45.500          33.7004
 107891167.326 8  84070995.47047  20531002.252
  20530990.1944         51.200          44.7004
 128156797.812 6  99862420.25144  24387421.104
  24387414.3204         41.400          24.6004
 125687064.191 7  97937932.75444  23917459.079
  23917450.0104         42.000          24.9004
 18  1  8 20  1  7.0000000  0 10G26G23G11G03G31G01G14G22G25G32
 128089393.286 5  99809918.23843  24374596.839
  24374592.2244         35.900          21.5004
 122625165.404 7  95552032.85844  23334788.620
  23334776.8544         46.000          29.7004
 124427724.987 6  96956614.66144  23677815.058
  23677805.2854         39.600          24.1004
 110440100.605 7  86057201.15347  21016049.312
  21016041.8254         47.800          42.8004
 108872248.456 8  84835486.89947  20717692.991
  20717682.6904         50.400          42.9004
 113546629.129 7  88477855.21046  21607207.920
  21607200.8434         46.900          39.8004
 116528963.185 7  90801754.82745  22174725.202
  22174715.1364         44.700          33.0004
 107890486.916 8  84070465.28747  20530872.837
  20530860.4264         50.800          44.4004
 128157509.392 6  99862974.73644  24387556.039
  24387549.7834         40.900          24.5004
 125690016.389 6  97940233.17144  23918020.739
  23918011.7864         41.500          25.7004
 18  1  8 20  1  8.0000000  0 10G26G23G11G03G31G01G14G22G25G32
 128086308.395 5  99807514.42143  24374009.409
  24374004.8524         35.900          21.3004
 122622617.993 7  95550047.86644  23334303.980
  23334292.3904         45.500          29.1004
 124430850.415 6  96959050.05444  23678410.204
  23678400.2554         39.900          24.7004
 110438184.343 7  86055707.95847  21015684.693
  21015676.7964         47.800          42.6004
 108873243.348 8  84836262.13947  20717882.350
  20717871.9334         50.700          42.8004
 113548587.482 7  88479381.19646  21607580.480
  21607573.8724         46.900          39.8004
 116531223.030 7  90803515.74345  22175155.055
  22175144.6974         45.100          33.0004
 107889806.905 8  84069935.40847  20530743.417
  20530731.1834         50.900          44.5004
 128158221.580 6  99863529.68744  24387692.196
  24387685.1784         41.000          25.4004
 125692968.614 6  97942533.60344  23918581.789
  23918573.8334         40.400          26.0004
 18  1  8 20  1  9.0000000  0 10G26G23G11G03G31G01G14G22G25G32
 128083223.625 5  99805110.70943  24373422.356
  24373417.7414         35.900          21.1004
 122620070.705 7  95548062.96744  23333819.176
  23333807.4104         45.300          28.7004
 124433976.079 6  96961485.63743  23679004.464
  23678994.9854         39.900          22.9004
 110436268.472 8  86054215.07447  21015319.841
  21015312.7064         48.300          42.7004
 108874238.917 8  84837037.91247  20718071.909
  20718061.0814         50.900          42.8004
 113550546.372 7  88480907.60746  21607953.194
  21607946.2934         47.000          39.8004
 116533483.030 7  90805276.77945  22175584.949
  22175575.0594         45.000          33.6004
 107889127.356 8  84069405.88847  20530614.260
  20530602.1434         51.500          44.4004
 128158934.380 6  99864085.11744  24387827.264
  24387820.8324         40.400          24.8004
 125695920.867 6  97944834.06244  23919142.585
  23919135.1574         40.200          25.0004
 18  1  8 20  1 10.0000000  0 10G26G23G11G03G31G01G14G22G25G32
 128080139.117 6  99802707.19643  24372836.264
  24372830.8874         36.000          21.3004
 122617523.755 7  95546078.33644  23333334.241
  23333322.4764         45.500          29.5004
 124437102.129 6  96963921.51744  23679599.933
  23679589.6914         40.300          24.7004
 110434353.125 8  86052722.60047  21014955.620
  21014948.2504         48.600          42.9004
 108875235.270 8  84837814.29147  20718261.524
  20718250.5794         50.700          42.9004
 113552506.023 7  88482434.60446  21608326.264
  21608319.5974         46.800          39.8004
 116535743.392 7  90807038.10145  22176014.888
  22176004.9404         44.700          33.1004
 107888448.427 8  84068876.85347  20530485.021
  20530472.3764         51.100          44.4004
 128159648.022 6  99864641.19944  24387963.042
  24387956.7274         40.300          25.3004
 125698873.383 6  97947134.71544  23919704.765
  23919697.2194         39.500          26.0004
 18  1  8 20  1 11.0000000  0 10G26G23G11G03G31G01G14G22G25G32
 128077054.666 5  99800303.72843  24372249.249
  24372243.9304         35.900          21.3004
 122614976.882 7  95544093.76844  23332848.964
  23332838.0784         45.400          29.4004
 124440228.353 6  96966357.52144  23680194.640
  23680185.1024         40.300          24.7004
 110432438.072 8  86051230.34847  21014591.055
  21014583.3344         48.400          42.8004
 108876232.204 8  84838591.11547  20718451.250
  20718440.5984         50.900          42.8004
 113554466.152 7  88483961.97846  21608699.136
  21608692.6464         47.000          39.6004
 116538003.854 7  90808799.49945  22176444.762
  22176434.8134         44.500          33.6004
 107887769.863 8  84068348.10547  20530356.060
  20530343.8254         51.000          44.5004
 128160362.236 6  99865197.72544  24388098.835
  24388092.9894         40.400          25.3004
 125701825.978 6  97949435.42644  23920266.427
  23920258.8234         39.600          25.5004
 18  1  8 20  1 12.0000000  0 10G26G23G11G03G31G01G14G22G25G32
 128073970.152 5  99797900.22343  24371662.121
  24371656.6264         35.700          21.1004
 122612429.986 7  95542109.16944  23332364.701
  23332353.3464         45.000          29.2004
 124443354.597 6  96968793.54644  23680789.443
  23680779.8464         40.800          25.0004
 110430523.231 7  86049738.26547  21014226.771
  21014219.4604         47.900          43.1004
 108877229.649 8  84839368.34547  20718641.079
  20718630.1344         50.600          42.7004
 113556426.676 7  88485489.65946  21609072.531
  21609065.6894         46.800          39.7004
 116540264.335 7  90810560.91445  22176875.525
  22176865.4014         44.600          33.6004
 107887091.620 8  84067819.60447  20530226.942
  20530214.4734         51.200          44.5004
 128161076.955 6  99865754.65944  24388235.207
  24388229.1274         40.600          25.3004
 125704778.386 6  97951735.98944  23920829.415
  23920820.8154         39.400          25.0004
 18  1  8 20  1 13.0000000  0 10G26G23G11G03G31G01G14G22G25G32
 128070886.411 5  99795497.31843  24371075.059
  24371069.8584         35.900          21.1004
 122609883.882 7  95540125.19044  23331880.184
  23331868.6534         44.900          29.1004
 124446481.723 6  96971230.27744  23681385.024
  23681375.0174         40.900          25.2004
 110428609.393 7  86048246.96247  21013862.838
  21013854.9414         47.900          43.1004
 108878228.356 8  84840146.56747  20718831.149
  20718820.0284         50.700          42.8004
 113558388.399 7  88487018.27546  21609445.745
  21609439.0204         47.100          39.4004
 116542525.625 7  90812322.95345  22177305.322
  22177295.4904         45.000          33.5004
 107886414.455 8  84067291.93947  20530098.184
  20530085.7744         51.300          44.5004
 128161792.970 6  99866312.57944  24388370.985
  24388364.9054         40.600          24.4004
 125707731.523 6  97954037.12644  23921391.273
  23921382.7314         39.900          25.1004
 18  1  8 20  1 14.0000000  0 10G26G23G11G03G31G01G14G22G25G32
 128067801.935 5  99793093.84243  24370488.004
  24370482.7454         35.700          20.9004
 122607337.074 7  95538140.65944  23331394.996
  23331383.9924         44.500          28.2004
 124449608.196 6  96973666.50744  23681979.547
  23681969.7744         40.500          25.0004
 110426695.062 8  86046755.27647  21013498.624
  21013490.6684         48.000          43.1004
 108879226.847 8  84840924.60447  20719021.173
  20719010.0524         50.700          42.7004
 113560349.820 7  88488546.65346  21609818.833
  21609812.2844         47.500          39.3004
 116544786.222 7  90814084.45945  22177735.500
  22177725.7864         45.000          33.2004
 107885736.890 8  84066763.97147  20529968.807
  20529956.5144         51.100          44.7004
 128162508.773 6  99866870.35144  24388506.123
  24388501.0974         40.400          24.3004
 125710683.847 6  97956337.64144  23921952.917
  23921944.3754         40.400          26.2004
 18  1  8 20  1 15.0000000  0 10G26G23G11G03G31G01G14G22G25G32
 128064717.879 6  99790690.67143  24369900.640
  24369896.0254         36.000          20.6004
 122604790.726 7  95536156.50544  23330910.849
  23330899.3774         44.500          28.9004
 124452735.202 6  96976103.14443  23682574.348
  23682564.8684         39.800          23.9004
 110424781.429 8  86045264.13347  21013134.224
  21013126.4444         48.000          42.9004
 108880226.305 8  84841703.40147  20719211.377
  20719200.3734         50.700          43.0004
 113562312.115 7  88490075.71146  21610192.353
  21610185.6284         47.100          39.3004
 116547047.295 7  90815846.33445  22178165.828
  22178155.9384         45.100          33.2004
 107885060.086 8  84066236.59147  20529840.297
  20529828.0044         51.300          44.9004
 128163225.544 6  99867428.88543  24388643.726
  24388638.0564         40.700          23.9004
 125713636.581 6  97958638.47044  23922514.880
  23922506.5734         40.500          26.7004
 18  1  8 20  1 16.0000000  0 10G26G23G11G03G31G01G14G22G25G32
 128061634.029 5  99788287.66643  24369314.728
  24369309.0584         35.900          20.6004
 122602244.614 7  95534172.51944  23330425.930
  23330414.9274         44.500          29.1004
 124455862.527 6  96978540.02043  23683169.979
  23683159.7964         39.900          22.8004
 110422868.231 8  86043773.33147  21012770.191
  21012762.1184         48.500          42.9004
 108881226.495 8  84842482.77647  20719401.600
  20719390.7734         50.700          42.7004
 113564275.044 7  88491605.26746  21610566.019
  21610558.8834         47.500          39.3004
 116549308.666 7  90817608.44145  22178596.645
  22178586.3444         45.100          33.1004
 107884383.826 8  84065709.63447  20529711.747
  20529699.1614         51.100          44.7004
 128163943.070 6  99867987.99943  24388780.283
  24388773.9684         40.600          23.5004
 125716589.468 6  97960939.42044  23923076.752
  23923068.2694         40.700          25.8004
 18  1  8 20  1 17.0000000  0 10G26G23G11G03G31G01G14G22G25G32
 128058550.330 5  99785884.77643  24368727.731
  24368722.1784         35.800          20.6004
 122599698.682 7  95532188.68044  23329941.955
  23329930.4824         44.500          29.0004
 124458990.126 6  96980977.08643  23683764.769
  23683755.2314         40.000          22.8004
 110420955.463 8  86042282.86047  21012406.271
  21012398.4914         49.000          42.8004
 108882227.397 8  84843262.69647  20719592.362
  20719581.2414         50.900          42.6004
 113566238.611 7  88493135.31646  21610939.560
  21610932.4834         47.500          39.1004
 116551570.252 7  90819370.71045  22179026.599
  22179017.1784         44.900          33.0004
 107883708.071 8  84065183.07747  20529583.032
  20529570.3874         50.900          44.8004
 128164661.273 6  99868547.63444  24388917.381
  24388911.0674         40.900          24.6004
 125719542.433 6  97963240.43944  23923638.325
  23923630.4284         40.500          26.7004
 18  1  8 20  1 18.0000000  0 10G26G23G11G03G31G01G14G22G25G32
 128055466.782 5  99783482.01143  24368140.768
  24368135.4494         35.500          20.9004
 122597152.958 7  95530205.00144  23329457.139
  23329445.7834         44.800          28.4004
 124462117.979 6  96983414.36643  23684360.183
  23684350.4114         39.600          22.9004
 110419043.079 8  86040792.69647  21012042.315
  21012034.8284         48.100          42.9004
 108883228.944 8  84844043.12047  20719782.793
  20719771.9064         50.700          42.7004
 113568202.729 8  88494665.80346  21611313.403
  21611306.4444         48.000          39.4004
 116553832.023 7  90821133.13045  22179457.267
  22179447.0264         45.100          33.1004
 107883032.809 8  84064656.89447  20529454.396
  20529442.1034         51.200          44.8004
 128165380.164 6  99869107.80744  24389053.459
  24389047.4374         40.500          24.1004
 125722495.541 6  97965541.56344  23924200.523
  23924192.7434         40.800          26.4004
 18  1  8 20  1 19.0000000  0 10G26G23G11G03G31G01G14G22G25G32
 128052383.228 6  99781079.25843  24367554.316
  24367548.3534         36.000          20.9004
 122594607.276 7  95528221.35844  23328972.826
  23328961.4134         45.000          28.7004
 124465245.925 6  96985851.72643  23684955.847
  23684945.4294         40.100          23.0004
 110417130.991 8  86039302.76047  21011678.509
  21011671.1984         48.200          42.5004
 108884231.038 8  84844823.97847  20719973.273
  20719962.5044         50.700          42.8004
 113570167.330 7  88496196.65446  21611687.188
  21611680.2884         47.500          39.3004
 116556093.879 7  90822895.62245  22179887.552
  22179877.5444         45.100          33.3004
 107882357.873 8  84064130.97447  20529326.243
  20529313.8324         51.100          44.9004
 128166099.616 6  99869668.41544  24389190.560
  24389184.3634         40.800          24.7004
 125725448.608 6  97967842.64944  23924761.321
  23924754.3614         40.500          27.0004
 18  1  8 20  1 20.0000000  0 10G26G23G11G03G31G01G14G22G25G32
 128049299.676 6  99778676.49243  24366967.353
  24366961.6244         36.000          20.6004
 122592061.587 7  95526237.70544  23328488.189
  23328476.9504         45.000          29.4004
 124468373.958 6  96988289.15843  23685551.117
  23685541.4034         40.100          22.6004
 110415219.092 8  86037812.96747  21011314.661
  21011306.9994         48.400          42.5004
 108885233.636 8  84845605.22247  20720164.180
  20720153.4114         50.800          42.8004
 113572132.332 7  88497727.82046  21612060.932
  21612054.2654         46.900          39.5004
 116558355.744 7  90824658.11245  22180317.977
  22180307.7354         45.000          33.1004
 107881683.256 8  84063605.29547  20529197.955
  20529185.4274         51.300          45.1004
 128166819.581 6  99870229.42843  24389327.682
  24389321.7194         40.500          22.9004
 125728401.575 6  97970143.65944  23925324.306
  23925316.7024         40.400          26.0004
 18  1  8 20  1 21.0000000  0 10G26G23G11G03G31G01G14G22G25G32
 128046216.347 6  99776273.90943  24366380.008
  24366375.1004         36.200          20.9004
 122589516.204 7  95524254.29144  23328004.419
  23327992.4774         44.400          29.2004
 124471502.344 6  96990726.87143  23686146.613
  23686136.4304         40.300          22.6004
 110413307.709 8  86036323.57747  21010950.719
  21010943.3494         48.700          42.5004
 108886237.020 8  84846387.07447  20720355.032
  20720344.2044         51.200          42.7004
 113574098.045 7  88499259.54446  21612434.969
  21612428.5374         47.000          39.3004
 116560617.949 7  90826420.86845  22180748.849
  22180738.4904         45.000          33.6004
 107881009.237 8  84063080.08547  20529069.892
  20529057.3654         51.200          45.0004
 128167540.352 6  99870791.05443  24389464.774
  24389458.5764         40.700          22.9004
 125731354.773 6  97972444.86144  23925885.851
  23925878.4814         39.900          25.7004
 18  1  8 20  1 22.0000000  0 10G26G23G11G03G31G01G14G22G25G32
 128043133.185 6  99773871.45243  24365794.112
  24365788.6174         36.000          20.6004
 122586970.963 7  95522270.99444  23327520.221
  23327508.2214         44.700          29.8004
 124474630.978 6  96993164.75643  23686741.771
  23686731.7054         40.300          22.8004
 110411396.711 8  86034834.49147  21010587.207
  21010579.8374         48.700          42.5004
 108887241.067 8  84847169.44647  20720545.977
  20720535.2084         50.500          42.9004
 113576064.315 7  88500791.70646  21612809.068
  21612802.6944         47.200          39.2004
 116562880.309 7  90828183.74545  22181179.249
  22181169.0664         45.000          33.9004
 107880335.685 8  84062555.24547  20528941.354
  20528929.0614         50.800          45.1004
 128168261.754 6  99871353.18843  24389601.746
  24389596.0174         40.800          22.3004
 125734308.020 6  97974746.08644  23926447.590
  23926440.3374         40.200          25.9004
 18  1  8 20  1 23.0000000  0 10G26G23G11G03G31G01G14G22G25G32
 128040050.019 5  99771468.97943  24365207.105
  24365201.3174         35.800          20.9004
 122584425.794 7  95520287.73244  23327035.334
  23327024.0374         44.600          29.1004
 124477759.733 6  96995602.73943  23687337.018
  23687326.8934         40.300          22.8004
 110409485.995 8  86033345.62047  21010223.172
  21010216.2134         48.400          42.4004
 108888245.661 8  84847952.24947  20720737.087
  20720726.4354         50.200          42.9004
 113578031.061 7  88502324.23946  21613183.164
  21613176.8494         47.100          39.4004
 116565142.771 7  90829946.70045  22181609.810
  22181599.9204         44.700          33.4004
 107879662.489 8  84062030.67647  20528813.420
  20528801.1274         50.600          44.8004
 128168983.730 6  99871915.75643  24389739.127
  24389733.5744         40.300          22.3004
 125737261.240 6  97977047.30744  23927009.863
  23927002.4944         40.600          25.3004
 18  1  8 20  1 24.0000000  0 10G26G23G11G03G31G01G14G22G25G32
 128036967.172 6  99769066.76943  24364620.769
  24364615.0994         36.200          21.3004
 122581880.959 7  95518304.74944  23326551.468
  23326539.8194         45.100          29.4004
 124480888.878 6  96998041.02443  23687932.090
  23687922.2004         40.000          22.6004
 110407575.847 8  86031857.19947  21009859.990
  21009852.8554         48.800          42.5004
 108889251.097 8  84848735.70447  20720928.662
  20720918.1864         50.500          42.9004
 113579998.553 7  88503857.35246  21613557.515
  21613550.9654         46.500          39.3004
 116567405.591 7  90831709.93445  22182040.248
  22182030.3584         44.500          33.7004
 107878989.960 8  84061506.61947  20528685.531
  20528672.7694         50.900          44.7004
 128169706.581 6  99872479.00843  24389877.363
  24389870.8724         40.300          22.8004
 125740214.752 6  97979348.74044  23927571.639
  23927564.4454         40.400          25.2004
 18  1  8 20  1 25.0000000  0 10G26G23G11G03G31G01G14G22G25G32
 128033884.317 6  99766664.54743  24364034.341
  24364028.2614         36.600          20.9004
 122579336.147 7  95516321.78144  23326067.222
  23326055.1054         45.200          28.8004
 124484018.113 6  97000479.39843  23688528.121
  23688517.7624         39.400          22.5004
 110405665.931 8  86030368.94647  21009496.487
  21009488.5894         49.000          42.5004
 108890257.041 8  84849519.55847  20721120.384
  20721109.2634         50.500          42.9004
 113581966.467 7  88505390.78846  21613932.192
  21613926.1124         46.200          39.3004
 116569668.454 7  90833473.21445  22182470.777
  22182460.7114         44.700          33.2004
 107878317.727 8  84060982.80847  20528557.454
  20528545.0444         51.000          44.8004
 128170429.923 6  99873042.64743  24390014.375
  24390008.5294         40.200          22.8004
 125743168.194 6  97981650.12344  23928133.502
  23928125.9564         39.500          26.2004
 18  1  8 20  1 26.0000000  0 10G26G23G11G03G31G01G14G22G25G32
 128030801.702 6  99764262.50043  24363448.568
  24363441.8434         36.500          20.9004
 122576791.622 7  95514339.03544  23325583.491
  23325571.1984         45.300          28.6004
 124487147.739 6  97002918.06543  23689123.005
  23689113.4674         39.700          22.6004
 110403756.507 8  86028881.08747  21009133.457
  21009125.4424         49.200          42.5004
 108891263.764 8  84850304.01747  20721311.683
  20721301.0904         50.700          43.1004
 113583935.053 7  88506924.75146  21614306.947
  21614300.5154         46.200          39.5004
 116571931.619 7  90835236.70945  22182900.633
  22182891.0364         45.100          33.1004
 107877646.090 8  84060459.45747  20528429.981
  20528416.8674         50.800          44.8004
 128171154.056 6  99873606.89843  24390151.771
  24390146.0424         40.100          22.6004
 125746121.821 6  97983951.66044  23928695.366
  23928688.2894         39.700          26.2004
 18  1  8 20  1 27.0000000  0 10G26G23G11G03G31G01G14G22G25G32
 128027718.988 6  99761860.39943  24362860.927
  24362855.1394         36.100          20.9004
 122574247.006 7  95512356.21944  23325099.094
  23325087.1534         45.500          28.7004
 124490277.303 6  97005356.69743  23689719.034
  23689708.8514         39.700          22.6004
 110401847.240 8  86027393.34647  21008769.945
  21008762.1654         49.400          42.8004
 108892270.916 8  84851088.80847  20721503.185
  20721492.1234         51.100          43.0004
 113585903.999 7  88508458.99546  21614681.634
  21614675.4954         46.600          39.4004
 116574194.733 7  90837000.17345  22183331.870
  22183321.9224         45.000          33.7004
 107876974.674 8  84059936.27147  20528302.247
  20528289.2514         50.800          44.6004
 128171878.641 6  99874171.49443  24390290.562
  24390284.3644         40.400          22.9004
 125749075.287 6  97986253.06244  23929256.782
  23929250.2924         39.900          26.1004
 18  1  8 20  1 28.0000000  0 10G26G23G11G03G31G01G14G22G25G32
 128024636.691 6  99759458.61943  24362274.968
  24362269.1224         36.500          21.1004
 122571702.854 7  95510373.76744  23324615.030
  23324603.2654         45.400          28.9004
 124493407.408 6  97007795.73643  23690314.322
  23690304.4914         40.000          22.9004
 110399938.619 8  86025906.10947  21008406.958
  21008399.0604         49.400          42.7004
 108893279.000 8  84851874.33047  20721695.483
  20721684.3044         51.400          42.9004
 113587873.782 7  88509993.88546  21615055.871
  21615050.0254         46.400          39.6004
 116576458.310 7  90838763.99645  22183762.693
  22183752.9214         45.000          33.2004
 107876304.027 8  84059413.69147  20528174.347
  20528161.4094         51.000          44.5004
 128172604.100 6  99874736.79043  24390428.556
  24390421.7144         40.200          22.5004
 125752029.149 6  97988554.76944  23929818.910
  23929812.5364         39.100          26.2004
 18  1  8 20  1 29.0000000  0 10G26G23G11G03G31G01G14G22G25G32
 128021554.105 6  99757056.59543  24361687.924
  24361681.9614         36.600          21.3004
 122569158.464 7  95508391.12344  23324130.493
  23324118.6104         45.300          28.9004
 124496537.377 6  97010234.67343  23690910.631
  23690900.0384         40.200          22.5004
 110398030.018 8  86024418.89147  21008043.731
  21008035.6584         48.900          42.7004
 108894287.346 8  84852660.05547  20721887.244
  20721876.1824         51.100          42.9004
 113589843.746 7  88511528.92346  21615431.010
  21615425.1654         46.400          39.1004
 116578721.693 7  90840527.67845  22184193.610
  22184183.3104         44.800          33.5004
 107875633.454 8  84058891.16147  20528046.992
  20528033.8794         50.700          44.6004
 128173329.915 6  99875302.35843  24390566.224
  24390560.1444         39.700          22.5004
 125754982.665 6  97990856.21344  23930380.727
  23930374.4714         38.600          26.5004
 18  1  8 20  1 30.0000000  0 10G26G23G11G03G31G01G14G22G25G32
 128018471.901 6  99754654.87043  24361101.831
  24361095.4574         36.800          21.1004
 122566614.428 7  95506408.76544  23323646.944
  23323634.4754         45.400          29.9004
 124499667.731 6  97012673.89943  23691505.927
  23691495.8034         40.800          22.8004
 110396121.956 8  86022932.08847  21007680.521
  21007672.5074         48.400          42.8004
 108895296.535 8  84853446.43347  20722079.077
  20722068.1904         51.800          42.6004
 113591814.491 7  88513064.57146  21615805.933
  21615800.1454         46.400          39.3004
 116580985.457 7  90842291.64745  22184624.437
  22184614.4294         45.300          33.5004
 107874963.537 8  84058369.15247  20527919.196
  20527906.4344         50.900          44.7004
 128174056.545 6  99875868.57543  24390704.448
  24390698.6034         39.500          22.9004
 125757936.461 6  97993157.86644  23930942.321
  23930936.8274         38.600          26.4004
 18  1  8 20  1 31.0000000  0 10G26G23G11G03G31G01G14G22G25G32
 128015389.738 6  99752253.18143  24360515.722
  24360509.2324         36.800          21.1004
 122564070.523 7  95504426.49944  23323162.359
  23323150.3594         45.600          28.6004
 124502798.278 6  97015113.28843  23692102.128
  23692091.5344         40.700          22.8004
 110394214.250 7  86021445.56047  21007317.124
  21007309.5784         47.900          42.8004
 108896306.362 8  84854233.31647  20722271.310
  20722260.3064         51.200          42.9004
 113593785.760 7  88514600.62646  21616180.993
  21616174.9134         46.900          39.4004
 116583249.370 7  90844055.73845  22185055.159
  22185045.2694         45.400          34.0004
 107874294.035 8  84057847.46447  20527791.789
  20527779.2034         50.900          44.6004
 128174783.852 6  99876435.30643  24390842.337
  24390836.7264         39.000          22.5004
 125760890.320 6  97995459.57444  23931504.774
  23931498.8114         39.400          26.2004
 18  1  8 20  1 32.0000000  0 10G26G23G11G03G31G01G14G22G25G32
 128012307.500 6  99749851.45143  24359929.050
  24359922.7354         36.600          20.6004
 122561526.570 7  95502444.19844  23322678.753
  23322666.4604         44.700          28.6004
 124505928.895 6  97017552.72843  23692697.585
  23692687.1674         39.800          22.9004
 110392306.746 8  86019959.19747  21006954.359
  21006946.8724         48.400          42.5004
 108897316.630 8  84855020.53647  20722463.539
  20722452.9464         51.400          42.7004
 113595757.419 7  88516136.98046  21616556.321
  21616550.4174         46.700          39.8004
 116585513.264 7  90845819.81445  22185485.591
  22185476.1114         44.900          34.2004
 107873624.837 8  84057326.01247  20527664.600
  20527651.8384         50.500          44.7004
 128175511.565 6  99877002.35443  24390981.173
  24390975.8554         39.000          22.8004
 125763844.042 6  97997761.17444  23932067.586
  23932060.9784         39.300          26.3004
 18  1  8 20  1 33.0000000  0 10G26G23G11G03G31G01G14G22G25G32
 128009225.833 6  99747450.16143  24359342.810
  24359335.9094         36.500          20.6004
 122558983.158 7  95500462.32344  23322194.827
  23322182.7684         44.900          29.3004
 124509060.037 6  97019992.57843  23693292.846
  23693283.2494         39.700          22.3004
 110390399.987 8  86018473.41247  21006591.512
  21006584.2014         48.700          42.3004
 108898327.950 8  84855808.57347  20722656.037
  20722645.0344         51.200          42.7004
 113597729.993 7  88517674.04846  21616931.746
  21616925.3144         46.200          39.8004
 116587777.706 7  90847584.30945  22185916.545
  22185906.7134         44.900          33.9004
 107872956.449 8  84056805.18447  20527537.541
  20527524.4864         51.000          44.6004
 128176240.327 6  99877570.21943  24391119.502
  24391114.0084         39.400          22.9004
 125766798.231 6  98000063.14244  23932629.791
  23932622.9484         39.800          26.9004
 18  1  8 20  1 34.0000000  0 10G26G23G11G03G31G01G14G22G25G32
 128006144.001 6  99745048.73743  24358756.192
  24358749.7024         36.500          20.9004
 122556439.693 7  95498480.39945  23321710.553
  23321699.0224         45.200          30.2004
 124512191.271 6  97022432.49643  23693888.857
  23693878.6744         39.400          22.5004
 110388493.390 8  86016987.75047  21006228.813
  21006220.7984         48.800          42.2004
 108899339.702 8  84856596.95147  20722848.535
  20722837.8254         50.500          42.6004
 113599702.951 7  88519211.41946  21617307.124
  21617301.1024         45.500          39.7004
 116590042.108 7  90849348.77445  22186347.332
  22186337.7944         44.900          33.6004
 107872288.325 8  84056284.57047  20527410.415
  20527397.3024         51.400          44.5004
 128176969.539 6  99878138.44143  24391258.854
  24391252.6564         39.400          23.5004
 125769752.289 6  98002365.00244  23933191.669
  23933185.3544         39.800          26.4004
 18  1  8 20  1 35.0000000  0 10G26G23G11G03G31G01G14G22G25G32
 128003062.394 6  99742647.49443  24358169.649
  24358162.9834         36.200          20.9004
 122553896.418 7  95496498.62144  23321226.142
  23321214.4934         45.000          29.7004
 124515322.737 6  97024872.59643  23694485.158
  23694474.8584         39.500          22.3004
 110386587.213 8  86015502.41847  21005866.398
  21005858.0904         49.000          42.3004
 108900352.143 8  84857385.86647  20723041.289
  20723030.3444         50.300          42.5004
 113601676.469 7  88520749.22546  21617682.500
  21617676.6544         45.700          39.8004
 116592306.753 7  90851113.43545  22186778.668
  22186768.7784         45.200          33.7004
 107871620.707 8  84055764.34747  20527283.386
  20527270.3894         51.600          44.5004
 128177699.492 6  99878707.23143  24391397.346
  24391391.6764         39.800          23.6004
 125772706.447 6  98004666.94944  23933753.886
  23933747.2194         40.100          27.3004
 18  1  8 20  1 36.0000000  0 10G26G23G11G03G31G01G14G22G25G32
 127999980.909 6  99740246.32443  24357582.801
  24357576.7794         36.200          20.9004
 122551353.348 7  95494517.00944  23320742.635
  23320730.2844         45.100          29.0004
 124518454.498 6  97027312.92843  23695081.201
  23695070.8424         40.200          22.6004
 110384681.478 8  86014017.42747  21005503.467
  21005495.7454         48.900          42.2004
 108901365.309 8  84858175.34947  20723233.944
  20723222.9404         50.400          42.7004
 113603650.647 7  88522287.54146  21618058.092
  21618052.4804         46.000          39.5004
 116594571.658 7  90852878.29945  22187209.196
  22187199.4824         44.500          33.5004
 107870953.603 8  84055244.52547  20527156.364
  20527143.4274         51.400          44.7004
 128178430.142 6  99879276.57443  24391537.317
  24391530.5924         40.400          23.0004
 125775660.751 6  98006969.01644  23934316.235
  23934309.9794         38.800          26.4004
 18  1  8 20  1 37.0000000  0 10G26G23G11G03G31G01G14G22G25G32
 127996899.346 5  99737845.11943  24356995.731
  24356990.1784         35.800          20.9004
 122548810.195 7  95492535.33244  23320258.881
  23320246.9404         45.300          29.9004
 124521586.216 6  97029753.22643  23695676.225
  23695666.2764         40.700          22.9004
 110382775.857 8  86012532.53147  21005140.835
  21005133.1134         48.700          42.3004
 108902378.850 8  84858965.11947  20723427.099
  20723415.9784         50.600          42.8004
 113605625.126 7  88523826.09646  21618434.170
  21618428.6754         46.400          39.6004
 116596836.434 7  90854643.05345  22187640.257
  22187630.4264         44.500          33.7004
 107870286.689 8  84054724.85747  20527029.557
  20527016.2684         50.900          44.7004
 128179161.198 6  99879846.22643  24391675.483
  24391669.9304         40.600          22.6004
 125778614.843 6  98009270.90344  23934878.003
  23934871.7474         38.800          25.8004
 18  1  8 20  1 38.0000000  0 10G26G23G11G03G31G01G14G22G25G32
 127993817.832 5  99735443.94543  24356409.005
  24356403.5704         35.900          21.1004
 122546267.127 7  95490553.72145  23319775.075
  23319762.9584         45.500          30.2004
 124524718.100 6  97032193.66043  23696272.440
  23696262.5504         40.500          22.9004
 110380870.547 7  86011047.87047  21004778.476
  21004770.3454         47.900          42.2004
 108903392.979 8  84859755.34947  20723620.025
  20723609.3734         50.300          42.9004
 113607600.080 7  88525365.02246  21618810.079
  21618804.3504         46.400          39.6004
 116599101.326 7  90856407.90945  22188071.424
  22188061.4174         44.700          34.0004
 107869620.196 8  84054205.51247  20526902.609
  20526889.7304         51.100          44.7004
 128179892.827 6  99880416.32343  24391814.603
  24391808.9914         40.500          22.6004
 125781568.931 6  98011572.78744  23935440.102
  23935433.9634         38.600          26.9004
 18  1  8 20  1 39.0000000  0 10G26G23G11G03G31G01G14G22G25G32
 127990737.253 5  99733043.49643  24355822.886
  24355817.9194         35.200          21.1004
 122543725.013 7  95488572.85144  23319290.971
  23319279.1464         45.700          29.9004
 124527851.006 6  97034634.88343  23696869.079
  23696859.1314         39.700          22.8004
 110378966.434 7  86009564.14447  21004415.978
  21004408.0814         47.900          42.3004
 108904408.578 8  84860546.72247  20723813.316
  20723802.1364         50.200          43.1004
 113609576.422 7  88526905.02946  21619185.828
  21619180.5094         46.500          39.3004
 116601367.246 7  90858173.56045  22188502.626
  22188492.7364         45.300          33.6004
 107868954.959 8  84053687.14247  20526775.801
  20526762.9804         51.700          44.7004
 128180625.950 6  99880987.58343  24391954.887
  24391948.7484         40.900          22.9004
 125784523.957 6  98013875.40344  23936002.891
  23935996.6354         38.100          25.9004
 18  1  8 20  1 40.0000000  0 10G26G23G11G03G31G01G14G22G25G32
 127987655.828 5  99730642.37843  24355236.499
  24355230.9464         35.000          20.6004
 122541182.124 7  95486591.38145  23318807.398
  23318795.3404         45.800          30.3004
 124530983.193 6  97037075.55643  23697465.012
  23697454.6534         40.200          22.9004
 110377061.732 8  86008079.96347  21004053.460
  21004045.7394         48.600          42.3004
 108905423.882 8  84861337.86747  20724006.363
  20723995.5934         50.700          42.9004
 113611552.382 7  88528444.73646  21619561.981
  21619556.3704         46.600          39.5004
 116603632.399 7  90859938.61645  22188934.020
  22188923.6614         45.200          33.7004
 107868289.246 8  84053168.40347  20526649.207
  20526636.2694         51.500          44.7004
 128181358.773 6  99881558.61443  24392093.616
  24392088.1804         40.800          22.5004
 125787478.090 6  98016177.32344  23936564.484
  23936558.6964         38.400          26.8004
 18  1  8 20  1 41.0000000  0 10G26G23G11G03G31G01G14G22G25G32
 127984574.817 5  99728241.58343  24354650.009
  24354644.7494         35.300          20.6004
 122538639.668 7  95484610.23845  23318323.829
  23318311.4774         45.800          30.0004
 124534115.866 6  97039516.58843  23698060.978
  23698050.7954         40.300          22.8004
 110375157.690 8  86006596.29447  21003691.429
  21003683.2974         48.500          42.3004
 108906440.099 8  84862129.72647  20724199.765
  20724188.7034         50.300          43.1004
 113613529.179 7  88529985.09646  21619938.076
  21619932.4064         46.400          39.4004
 116605897.957 7  90861703.98845  22189364.763
  22189355.2244         45.300          33.6004
 107867624.259 8  84052650.23847  20526522.692
  20526509.9894         51.200          44.7004
 128182092.533 6  99882130.37243  24392233.226
  24392227.6734         40.700          22.6004
 125790432.555 6  98018479.51144  23937126.836
  23937120.8734         38.300          26.4004
 18  1  8 20  1 42.0000000  0 10G26G23G11G03G31G01G14G22G25G32
 127981493.976 5  99725840.93943  24354064.070
  24354058.6934         34.800          20.6004
 122536097.397 7  95482629.25545  23317839.853
  23317828.0294         45.900          30.2004
 124537248.852 6  97041957.86943  23698657.065
  23698647.0584         39.900          22.3004
 110373254.064 8  86005112.94447  21003328.875
  21003320.8024         48.000          42.5004
 108907457.022 8  84862922.13547  20724393.145
  20724382.5524         50.400          43.3004
 113615506.594 7  88531525.93546  21620314.351
  21620308.9744         46.400          39.5004
 116608163.779 7  90863469.56545  22189796.311
  22189786.1864         45.800          33.1004
 107866959.779 8  84052132.45947  20526396.372
  20526383.6104         51.100          44.7004
 128182826.999 6  99882702.69443  24392373.724
  24392367.5264         40.800          22.8004
 125793387.155 6  98020781.78844  23937689.265
  23937683.2444         38.900          26.4004
 18  1  8 20  1 43.0000000  0 10G26G23G11G03G31G01G14G22G25G32
 127978413.346 5  99723440.45443  24353477.154
  24353472.4224         34.800          20.4004
 122533555.346 7  95480648.43944  23317356.098
  23317344.1574         45.500          29.9004
 124540382.116 6  97044399.37643  23699253.396
  23699243.0964         40.600          22.6004
 110371350.884 8  86003629.94447  21002966.901
  21002958.7694         48.200          42.2004
 108908474.660 8  84863715.09847  20724586.990
  20724576.1634         50.400          43.1004
 113617484.631 7  88533067.26546  21620691.048
  21620685.5544         46.300          39.4004
 116610429.816 7  90865235.30645  22190227.290
  22190217.3424         45.100          33.2004
 107866295.841 8  84051615.10447  20526269.908
  20526256.9124         51.500          44.7004
 128183562.187 6  99883275.57143  24392513.470
  24392507.7414         40.900          22.9004
 125796341.892 6  98023084.17044  23938251.243
  23938245.5144         39.200          25.2004
 18  1  8 20  1 44.0000000  0 10G26G23G11G03G31G01G14G22G25G32
 127975332.500 5  99721039.79043  24352891.702
  24352886.3254         34.700          19.6004
 122531013.129 7  95478667.48945  23316872.285
  23316860.4024         45.400          30.2004
 124543515.270 6  97046840.79943  23699849.861
  23699839.4444         40.500          22.6004
 110369447.762 8  86002146.99447  21002604.785
  21002596.7704         48.600          42.2004
 108909492.629 8  84864508.32147  20724780.539
  20724769.7114         51.000          43.3004
 113619462.913 7  88534608.77846  21621067.203
  21621061.6514         46.800          39.3004
 116612695.763 7  90867000.97945  22190658.176
  22190648.3454         44.600          33.3004
 107865632.032 8  84051097.85147  20526143.536
  20526130.4814         50.800          44.7004
 128184297.722 6  99883848.69743  24392653.212
  24392647.6014         41.300          23.6004
 125799296.420 6  98025386.39944  23938813.658
  23938807.1094         38.400          24.9004
 18  1  8 20  1 45.0000000  0 10G26G23G11G03G31G01G14G22G25G32
 127972252.072 5  99718639.44243  24352305.378
  24352300.1774         35.000          19.9004
 122528471.358 7  95476686.88445  23316388.947
  23316376.7724         45.800          30.9004
 124546648.975 6  97049282.64243  23700446.035
  23700435.8524         40.200          22.8004
 110367545.303 8  86000664.55847  21002242.706
  21002234.4574         48.700          42.0004
 108910511.531 8  84865302.26547  20724974.449
  20724963.6794         51.200          43.5004
 113621442.058 7  88536150.97646  21621443.718
  21621438.4004         46.900          39.5004
 116614962.150 7  90868766.99045  22191090.403
  22191079.6344         44.700          33.2004
 107864968.988 8  84050581.19247  20526017.194
  20526004.2574         51.000          44.9004
 128185034.195 6  99884422.55843  24392793.903
  24392787.5884         40.800          23.3004
 125802251.255 6  98027688.87044  23939375.425
  23939369.2864         38.400          25.7004
 18  1  8 20  1 46.0000000  0 10G26G23G11G03G31G01G14G22G25G32
 127969171.716 5  99716239.16543  24351718.921
  24351713.6614         35.000          19.6004
 122525929.681 7  95474706.35345  23315905.057
  23315893.1164         45.100          30.6004
 124549782.837 6  97051724.60643  23701042.462
  23701031.9854         39.900          22.8004
 110365643.150 8  85999182.36347  21001880.551
  21001873.1234         48.500          42.1004
 108911531.005 8  84866096.66547  20725168.462
  20725157.5764         51.000          43.2004
 113623421.650 7  88537693.51746  21621820.529
  21621815.2694         46.900          39.2004
 116617228.645 7  90870533.09045  22191521.599
  22191511.0064         45.500          33.7004
 107864306.321 8  84050064.83047  20525891.311
  20525878.7844         50.500          44.8004
 128185771.262 6  99884996.89243  24392934.513
  24392927.9644         40.900          23.9004
 125805206.101 6  98029991.34944  23939938.031
  23939931.5414         38.600          25.3004
 18  1  8 20  1 47.0000000  0 10G26G23G11G03G31G01G14G22G25G32
 127966091.483 5  99713838.99243  24351132.513
  24351127.7224         34.800          19.9004
 122523388.184 7  95472725.96245  23315421.641
  23315409.4074         45.200          30.1004
 124552916.932 6  97054166.76043  23701638.410
  23701628.4034         39.700          22.9004
 110363741.411 8  85997700.49147  21001518.605
  21001511.0014         48.100          42.0004
 108912551.185 8  84866891.60747  20725362.480
  20725352.0044         50.900          43.1004
 113625401.881 7  88539236.54646  21622197.408
  21622191.7384         46.600          39.1004
 116619495.361 7  90872299.36545  22191953.157
  22191942.4464         45.800          33.7004
 107863644.179 8  84049548.87347  20525764.771
  20525752.0094         50.500          44.8004
 128186509.001 6  99885571.74844  24393074.726
  24393068.3524         41.000          25.3004
 125808161.075 6  98032293.92944  23940499.894
  23940494.0484         38.900          26.5004
 18  1  8 20  1 48.0000000  0 10G26G23G11G03G31G01G14G22G25G32
 127963011.290 5  99711438.83243  24350546.426
  24350541.2834         34.500          19.9004
 122520846.756 7  95470745.63445  23314937.821
  23314926.0554         45.200          30.0004
 124556051.149 6  97056609.00943  23702234.197
  23702224.7764         38.700          22.8004
 110361839.945 8  85996218.83247  21001156.950
  21001148.8184         48.600          42.1004
 108913571.908 8  84867686.97247  20725556.746
  20725546.1524         51.100          43.3004
 113627382.566 7  88540779.93946  21622574.299
  21622568.8634         46.700          39.1004
 116621762.159 7  90874065.69945  22192384.258
  22192373.7234         45.600          33.2004
 107862982.370 8  84049033.17547  20525639.144
  20525626.5574         50.200          44.9004
 128187247.337 6  99886147.07044  24393214.896
  24393209.1094         40.600          25.0004
 125811115.995 6  98034596.46344  23941062.708
  23941056.3934         38.500          25.9004
 18  1  8 20  1 49.0000000  0 10G26G23G11G03G31G01G14G22G25G32
 127959931.287 5  99709038.82943  24349959.637
  24349955.7264         34.900          19.9004
 122518305.538 7  95468765.46044  23314453.922
  23314442.0984         45.800          29.7004
 124559185.637 6  97059051.47443  23702831.227
  23702821.8654         38.600          23.4004
 110359938.942 8  85994737.52547  21000794.607
  21000787.2384         48.300          42.1004
 108914593.363 8  84868482.91647  20725750.876
  20725740.2244         51.100          43.2004
 113629363.893 7  88542323.82946  21622951.440
  21622946.0044         46.500          39.1004
 116624029.190 7  90875832.21145  22192815.861
  22192805.1504         45.100          33.3004
 107862321.098 8  84048517.89947  20525513.235
  20525500.4144         50.600          45.1004
 128187986.378 6  99886722.94344  24393355.745
  24393349.6064         40.900          24.4004
 125814071.061 6  98036899.10444  23941624.886
  23941618.4544         38.400          26.1004
 18  1  8 20  1 50.0000000  0 10G26G23G11G03G31G01G14G22G25G32
 127956851.491 5  99706638.97443  24349373.065
  24349369.5644         35.000          19.9004
 122515764.528 7  95466785.45645  23313970.653
  23313958.7714         46.300          30.2004
 124562320.416 6  97061494.16143  23703427.780
  23703417.8324         39.200          23.8004
 110358038.334 7  85993256.53447  21000433.191
  21000425.2944         47.900          42.1004
 108915615.492 8  84869279.37547  20725945.452
  20725934.8584         50.800          43.0004
 113631345.799 7  88543868.16746  21623328.161
  21623322.7264         46.700          39.2004
 116626296.467 7  90877598.91745  22193247.384
  22193236.7324         45.800          33.9004
 107861660.335 8  84048003.01847  20525387.601
  20525374.8984         51.000          44.9004
 128188726.112 6  99887299.36343  24393497.133
  24393490.5254         40.900          23.3004
 125817026.269 6  98039201.86544  23942187.729
  23942181.0044         38.900          25.7004
 18  1  8 20  1 51.0000000  0 10G26G23G11G03G31G01G14G22G25G32
 127953771.502 5  99704239.01843  24348786.546
  24348783.3384         34.400          19.3004
 122513223.379 7  95464805.34045  23313487.054
  23313475.1134         45.800          31.0004
 124565455.122 6  97063936.79043  23704024.393
  23704014.6794         39.200          22.6004
 110356137.842 8  85991775.62947  21000071.692
  21000063.9124         48.200          42.0004
 108916638.001 8  84870076.14047  20726139.983
  20726129.4484         50.700          42.9004
 113633327.989 7  88545412.72946  21623705.509
  21623700.1904         47.000          39.1004
 116628563.614 7  90879365.52245  22193678.730
  22193668.1364         45.500          33.1004
 107860999.738 8  84047488.27047  20525262.081
  20525249.0854         50.500          44.8004
 128189466.223 6  99887876.08543  24393637.510
  24393631.5464         40.500          23.0004
 125819981.249 6  98041504.45144  23942750.452
  23942743.2584         39.400          25.7004
 18  1  8 20  1 52.0000000  0 10G26G23G11G03G31G01G14G22G25G32
 127950692.005 5  99701839.44343  24348201.263
  24348197.5284         34.500          19.3004
 122510682.777 7  95462825.66045  23313003.450
  23312991.8604         45.600          30.2004
 124568590.421 6  97066379.88943  23704620.725
  23704611.1874         39.100          22.9004
 110354238.091 8  85990295.30847  20999710.093
  20999702.3134         48.700          42.1004
 108917661.541 8  84870873.70747  20726334.723
  20726324.1294         51.100          42.9004
 113635311.143 7  88546958.04746  21624082.806
  21624077.1944         47.200          39.4004
 116630831.347 7  90881132.58245  22194110.514
  22194099.8624         45.100          33.1004
 107860339.992 8  84046974.17647  20525136.581
  20525123.8784         50.500          44.8004
 128190207.387 6  99888453.62044  24393778.170
  24393772.3244         40.500          24.0004
 125822936.688 6  98043807.40244  23943312.706
  23943305.6304         39.200          26.5004
 18  1  8 20  1 53.0000000  0 10G26G23G11G03G31G01G14G22G25G32
 127947612.393 5  99699439.75043  24347615.973
  24347611.2994         33.200          19.3004
 122508142.071 7  95460845.88145  23312520.337
  23312508.5134         45.600          30.4004
 124571725.672 6  97068822.94543  23705216.777
  23705207.4734         39.400          23.3004
 110352338.457 8  85988815.08047  20999348.634
  20999341.1474         48.700          42.2004
 108918685.463 8  84871671.57047  20726529.640
  20726519.1054         51.100          42.7004
 113637294.573 7  88548503.57546  21624460.519
  21624454.5564         47.300          39.5004
 116633098.965 7  90882899.56345  22194541.780
  22194530.7774         44.900          33.0004
 107859680.432 8  84046460.23847  20525011.102
  20524998.1644         50.800          44.7004
 128190948.938 6  99889031.45344  24393919.148
  24393913.3024         40.600          24.7004
 125825891.920 6  98046110.17744  23943875.112
  23943868.2114         39.900          26.3004
 18  1  8 20  1 54.0000000  0 10G26G23G11G03G31G01G14G22G25G32
 127944533.105 5  99697040.31243  24347029.549
  24347025.1104         34.400          19.3004
 122505601.733 7  95458866.40045  23312036.690
  23312024.6904         45.300          30.0004
 124574861.384 6  97071266.35743  23705813.812
  23705804.6834         39.300          23.0004
 110350439.415 8  85987335.30247  20998987.120
  20998979.5744         48.600          42.3004
 108919710.263 8  84872470.11447  20726724.705
  20726714.0534         50.600          42.8004
 113639278.780 7  88550049.70946  21624838.096
  21624832.3094         46.900          39.5004
 116635366.980 7  90884666.84645  22194973.245
  22194962.7104         45.200          33.4004
 107859021.556 8  84045946.83247  20524885.460
  20524872.5234         50.900          44.6004
 128191691.351 6  99889609.96143  24394060.427
  24394054.8164         41.000          23.8004
 125828847.464 6  98048413.19844  23944438.090
  23944430.4864         40.000          26.0004
 18  1  8 20  1 55.0000000  0 10G26G23G11G03G31G01G14G22G25G32
 127941453.777 5  99694640.83043  24346443.375
  24346439.0534         34.600          19.9004
 122503061.417 7  95456886.93445  23311553.224
  23311541.6344         45.300          30.4004
 124577997.102 6  97073709.76543  23706410.477
  23706401.1154         39.200          23.0004
 110348540.584 8  85985855.69647  20998625.818
  20998618.0974         48.400          42.4004
 108920735.531 8  84873269.02147  20726919.838
  20726909.1284         51.000          42.9004
 113641263.373 7  88551596.13946  21625215.262
  21625210.0024         46.500          39.7004
 116637635.007 7  90886434.13645  22195404.987
  22195394.3934         45.500          33.3004
 107858362.979 8  84045433.65647  20524759.939
  20524747.4704         50.900          44.7004
 128192434.259 6  99890188.85944  24394201.883
  24394196.3304         41.200          24.1004
 125831802.889 6  98050716.12944  23944999.837
  23944993.1124         39.600          26.8004
 18  1  8 20  1 56.0000000  0 10G26G23G11G03G31G01G14G22G25G32
 127938374.512 5  99692241.38543  24345858.074
  24345853.1084         34.900          19.6004
 122500521.157 7  95454907.50945  23311069.583
  23311058.1694         45.000          30.8004
 124581132.993 6  97076153.32343  23707006.802
  23706997.7914         39.400          22.2004
 110346642.054 8  85984376.32647  20998264.511
  20998257.0244         48.400          42.3004
 108921761.366 8  84874068.37447  20727114.998
  20727104.2294         51.300          42.7004
 113643248.462 7  88553142.95846  21625593.174
  21625587.5634         46.300          39.3004
 116639903.148 7  90888201.51445  22195836.729
  22195825.9604         46.000          33.9004
 107857704.782 8  84044920.77447  20524634.766
  20524622.2974         51.000          44.8004
 128193177.747 6  99890768.20944  24394343.672
  24394337.8264         41.800          24.4004
 125834758.351 6  98053019.07744  23945562.561
  23945555.7194         39.500          25.3004
 18  1  8 20  1 57.0000000  0 10G26G23G11G03G31G01G14G22G25G32
 127935295.538 5  99689842.17943  24345271.819
  24345266.8524         35.500          19.3004
 122497981.265 7  95452928.36645  23310586.310
  23310574.8374         44.600          30.1004
 124584269.304 6  97078597.19043  23707603.920
  23707594.6754         39.400          22.0004
 110344744.096 8  85982897.39847  20997903.427
  20997895.8234         48.500          42.6004
 108922788.070 8  84874868.40447  20727310.371
  20727299.6024         51.200          42.5004
 113645234.319 7  88554690.37946  21625971.331
  21625965.6614         46.300          39.1004
 116642171.665 7  90889969.18945  22196268.717
  22196257.3034         45.300          33.4004
 107857047.251 8  84044408.41347  20524509.818
  20524497.1154         51.200          44.8004
 128193922.099 7  99891348.22344  24394485.071
  24394479.5184         42.100          24.3004
 125837714.044 6  98055322.20644  23946124.387
  23946118.0724         38.900          25.3004
 18  1  8 20  1 58.0000000  0 10G26G23G11G03G31G01G14G22G25G32
 127932216.566 5  99687443.00043  24344686.448
  24344681.1894         35.500          19.3004
 122495441.317 7  95450949.19045  23310102.478
  23310091.3574         44.800          30.7004
 124587405.617 6  97081041.08043  23708200.662
  23708191.8274         39.400          22.0004
 110342846.324 8  85981418.60547  20997542.127
  20997534.6984         49.000          42.4004
 108923815.194 8  84875668.76247  20727505.756
  20727495.5734         51.400          42.7004
 113647220.526 7  88556238.07746  21626349.073
  21626343.9894         46.400          39.2004
 116644440.130 7  90891736.82445  22196699.860
  22196689.5604         45.400          33.8004
 107856389.975 8  84043896.24647  20524384.711
  20524372.0664         51.200          44.9004
 128194666.914 7  99891928.59644  24394627.562
  24394620.7794         42.600          24.2004
 125840669.642 6  98057625.26844  23946687.428
  23946680.4694         39.900          26.5004
 18  1  8 20  1 59.0000000  0 10G26G23G11G03G31G01G14G22G25G32
 127929137.761 5  99685043.93143  24344099.632
  24344095.3104         35.500          19.0004
 122492901.582 7  95448970.18145  23309620.120
  23309608.4134         45.200          30.2004
 124590542.203 6  97083485.17443  23708797.774
  23708788.8224         39.700          21.8004
 110340948.977 8  85979940.15447  20997181.573
  20997173.4424         49.200          42.2004
 108924843.044 8  84876469.68347  20727701.499
  20727690.4954         51.500          42.7004
 113649207.341 7  88557786.24146  21626727.181
  21626721.5704         46.500          39.3004
 116646708.859 7  90893504.66445  22197131.590
  22197121.5244         46.100          33.2004
 107855733.211 8  84043384.47947  20524260.025
  20524246.9704         51.200          45.1004
 128195412.424 7  99892509.51344  24394769.821
  24394762.6864         43.000          24.2004
 125843625.337 6  98059928.40544  23947250.141
  23947242.6544         39.300          27.1004
 18  1  8 20  2  0.0000000  0 10G26G23G11G03G31G01G14G22G25G32
 127926059.045 5  99682644.92443  24343513.738
  24343509.3574         34.800          19.3004
 122490362.007 7  95446991.29544  23309136.430
  23309124.8404         44.800          29.8004
 124593679.040 6  97085929.46743  23709394.314
  23709385.5974         39.200          22.0004
 110339052.026 8  85978462.01147  20996820.396
  20996812.4984         48.600          42.2004
 108925871.563 8  84877271.12747  20727897.089
  20727886.5554         50.800          42.6004
 113651194.759 7  88559334.88146  21627105.123
  21627099.9804         46.400          39.0004
 116648977.782 7  90895272.65245  22197563.079
  22197552.6034         45.400          33.2004
 107855076.948 8  84042873.10647  20524134.784
  20524122.3744         51.000          44.9004
 128196158.642 7  99893090.97344  24394912.215
  24394904.6114         43.300          26.0004
 125846581.139 6  98062231.62744  23947812.360
  23947805.4004         39.100          26.8004
 18  1  8 20  2  1.0000000  0 10G26G23G11G03G31G01G14G22G25G32
 127922980.240 5  99680245.84043  24342928.077
  24342923.5214         34.800          19.0004
 122487822.386 7  95445012.37245  23308652.955
  23308642.0104         44.900          30.3004
 124596815.852 6  97088373.74943  23709991.353
  23709982.6944         39.400          22.2004
 110337155.234 8  85976983.99447  20996459.491
  20996451.6524         48.300          42.1004
 108926900.507 8  84878072.90047  20728093.141
  20728082.0794         50.500          42.5004
 113653182.501 7  88560883.77146  21627483.569
  21627478.1344         46.700          39.3004
 116651246.672 7  90897040.62145  22197994.883
  22197984.5244         45.300          33.8004
 107854420.903 8  84042361.90647  20524010.110
  20523997.2314         50.900          45.0004
 128196905.293 7  99893672.77344  24395054.311
  24395047.0004         43.200          26.2004
 125849536.748 6  98064534.69144  23948375.451
  23948367.9644         39.700          27.1004
 18  1  8 20  2  2.0000000  0 10G26G23G11G03G31G01G14G22G25G32
 127919901.953 5  99677847.18043  24342342.109
  24342338.2564         35.300          19.0004
 122485283.255 7  95443033.82445  23308169.876
  23308158.7554         44.700          30.2004
 124599953.268 6  97090818.47843  23710588.489
  23710579.6544         39.700          22.2004
 110335259.155 8  85975506.52947  20996098.626
  20996090.9044         48.100          42.3004
 108927930.445 8  84878875.44847  20728288.855
  20728278.2624         51.000          42.6004
 113655171.189 7  88562433.39846  21627862.536
  21627856.5144         46.800          39.4004
 116653516.052 7  90898808.96745  22198426.631
  22198416.3904         45.600          33.4004
 107853765.687 8  84041851.35247  20523885.363
  20523872.9524         50.800          44.8004
 128197652.973 7  99894255.38444  24395196.288
  24395189.0944         43.400          25.2004
 125852492.840 6  98066838.14644  23948938.195
  23948930.4744         39.400          26.5004
 18  1  8 20  2  3.0000000  0 10G26G23G11G03G31G01G14G22G25G32
 127916823.467 5  99675448.36643  24341756.482
  24341752.1604         34.300          19.3004
 122482743.981 7  95441055.16744  23307686.799
  23307675.3864         45.000          29.9004
 124603090.571 6  97093263.12043  23711185.366
  23711176.0034         40.300          22.5004
 110333363.154 7  85974029.12647  20995737.826
  20995729.8704         47.900          42.3004
 108928960.715 8  84879678.25447  20728485.116
  20728474.2304         51.100          42.6004
 113657160.089 7  88563983.18846  21628240.281
  21628234.9044         46.300          39.3004
 116655785.316 7  90900577.23445  22198858.574
  22198848.2744         45.800          33.0004
 107853110.605 8  84041340.89547  20523760.506
  20523748.0964         51.100          45.1004
 128198400.946 7  99894838.21244  24395338.853
  24395331.4254         43.400          24.4004
 125855448.662 6  98069141.38244  23949499.857
  23949492.7224         39.500          25.8004
 18  1  8 20  2  4.0000000  0 10G26G23G11G03G31G01G14G22G25G32
 127913745.332 5  99673049.83343  24341170.583
  24341166.5544         34.600          19.0004
 122480205.084 7  95439076.80345  23307203.260
  23307192.0224         44.600          30.4004
 124606228.338 6  97095708.13743  23711782.410
  23711773.8094         40.500          22.9004
 110331467.781 8  85972552.20747  20995377.175
  20995369.6294         48.100          42.4004
 108929991.883 8  84880481.76647  20728681.116
  20728670.4064         51.000          42.8004
 113659149.788 7  88565533.60746  21628619.379
  21628613.3574         46.200          39.3004
 116658055.012 7  90902345.82145  22199290.245
  22199280.3554         46.000          33.1004
 107852456.253 8  84040831.01247  20523636.168
  20523623.8164         51.100          45.2004
 128199149.828 7  99895421.75643  24395481.544
  24395473.9404         43.100          23.6004
 125858404.800 6  98071444.86444  23950063.263
  23950055.3664         40.200          25.8004
 18  1  8 20  2  5.0000000  0 10G26G23G11G03G31G01G14G22G25G32
 127910667.200 5  99670651.29643  24340584.415
  24340580.7964         34.700          19.0004
 122477666.214 7  95437098.46245  23306720.520
  23306709.3994         44.600          30.5004
 124609366.217 6  97098153.24443  23712379.909
  23712370.4294         39.500          22.9004
 110329572.645 8  85971075.48347  20995016.883
  20995008.7514         48.100          42.3004
 108931023.573 8  84881285.67247  20728877.698
  20728866.6354         50.900          42.9004
 113661139.956 7  88567084.38146  21628998.337
  21628992.4334         46.400          39.3004
 116660324.754 7  90904114.45545  22199721.938
  22199711.8144         45.600          32.6004
 107851802.215 8  84040321.37047  20523511.679
  20523499.0924         51.300          45.1004
 128199899.253 7  99896005.73244  24395623.914
  24395616.3104         43.000          24.0004
 125861360.933 6  98073748.34544  23950625.225
  23950618.1484         39.200          26.8004
 18  1  8 20  2  6.0000000  0 10G26G23G11G03G31G01G14G22G25G32
 127907589.166 5  99668252.83743  24339999.091
  24339995.1804         34.200          19.0004
 122475127.446 7  95435120.20545  23306237.160
  23306225.8634         45.100          30.0004
 124612504.230 6  97100598.45443  23712977.186
  23712967.9404         39.400          22.8004
 110327677.851 8  85969599.02047  20994656.072
  20994648.2334         48.200          42.1004
 108932055.858 8  84882090.05047  20729073.958
  20729063.0714         50.700          42.9004
 113663130.589 7  88568635.52546  21629377.215
  21629371.1934         45.600          39.2004
 116662594.614 7  90905883.17345  22200154.324
  22200144.0834         45.400          32.6004
 107851148.601 8  84039812.05647  20523387.363
  20523374.6604         51.500          45.3004
 128200649.319 7  99896590.20744  24395766.052
  24395759.0344         43.400          24.5004
 125864317.040 6  98076051.79144  23951187.819
  23951180.6254         39.100          26.7004
 18  1  8 20  2  7.0000000  0 10G26G23G11G03G31G01G14G22G25G32
 127904511.260 5  99665854.47943  24339413.503
  24339409.5914         34.800          19.3004
 122472588.923 7  95433142.13745  23305754.052
  23305742.4624         45.400          30.5004
 124615642.542 6  97103043.88943  23713574.293
  23713564.9894         39.700          22.5004
 110325783.480 8  85968122.88247  20994295.664
  20994287.5914         48.100          42.0004
 108933088.875 8  84882894.99947  20729270.716
  20729259.7714         50.500          42.9004
 113665121.865 7  88570187.16646  21629755.748
  21629749.9614         45.800          39.0004
 116664864.706 7  90907652.07645  22200586.135
  22200576.0114         45.700          32.4004
 107850495.489 8  84039303.14547  20523263.364
  20523250.3684         51.400          45.1004
 128201400.071 7  99897175.20744  24395909.157
  24395901.8454         43.100          24.4004
 125867273.289 6  98078355.36244  23951749.787
  23951743.0624         39.300          26.6004
 18  1  8 20  2  8.0000000  0 10G26G23G11G03G31G01G14G22G25G32
 127901433.595 5  99663456.29143  24338828.425
  24338824.0444         34.600          19.6004
 122470050.532 7  95431164.17545  23305271.139
  23305259.9014         45.400          30.4004
 124618781.056 6  97105489.46943  23714171.893
  23714162.2964         39.500          22.8004
 110323889.495 7  85966647.05746  20993935.059
  20993927.0444         47.900          41.9004
 108934122.537 8  84883700.45347  20729467.523
  20729457.1064         50.500          42.6004
 113667113.718 7  88571739.26546  21630134.669
  21630129.0574         45.700          38.8004
 116667134.998 7  90909421.12845  22201018.246
  22201007.9464         45.900          32.2004
 107849842.884 8  84038794.61447  20523139.023
  20523126.2024         51.600          45.1004
 128202151.494 7  99897760.72743  24396051.917
  24396044.7234         43.200          23.8004
 125870229.608 6  98080658.98544  23952313.694
  23952306.2664         39.600          27.1004
 18  1  8 20  2  9.0000000  0 10G26G23G11G03G31G01G14G22G25G32
 127898355.953 5  99661058.14143  24338243.071
  24338238.5144         34.800          19.6004
 122467512.288 7  95429186.32745  23304788.572
  23304777.3344         45.400          30.0004
 124621919.804 6  97107935.25243  23714768.934
  23714759.5134         39.600          22.8004
 110321995.889 8  85965171.51846  20993574.762
  20993567.1584         48.300          41.8004
 108935156.850 8  84884506.41047  20729664.047
  20729653.3374         50.500          42.6004
 113669106.114 7  88573291.77746  21630514.144
  21630508.2394         45.800          39.1004
 116669405.468 7  90911190.33245  22201449.703
  22201439.8134         45.200          32.7004
 107849190.712 8  84038286.43047  20523014.876
  20523002.5244         51.300          45.3004
 128202903.576 7  99898346.76744  24396194.932
  24396187.7394         43.100          25.3004
 125873185.997 6  98082962.65444  23952876.134
  23952868.5894         39.900          26.4004
 18  1  8 20  2 10.0000000  0 10G26G23G11G03G31G01G14G22G25G32
 127895278.536 5  99658660.15643  24337657.472
  24337652.3294         35.000          19.6004
 122464974.251 7  95427208.63545  23304305.168
  23304293.8124         45.500          30.6004
 124625058.786 6  97110381.21143  23715366.520
  23715356.8654         39.800          22.5004
 110320102.704 7  85963696.31046  20993214.242
  20993206.1694         47.800          41.9004
 108936191.831 8  84885312.89147  20729861.196
  20729850.4264         50.000          42.2004
 113671099.091 7  88574844.74746  21630893.804
  21630887.5484         45.800          39.1004
 116671676.145 7  90912959.68945  22201882.442
  22201872.0834         45.000          32.6004
 107848539.039 8  84037778.63747  20522890.918
  20522878.1564         51.100          45.2004
 128203656.334 7  99898933.33043  24396337.796
  24396330.9534         43.100          23.9004
 125876142.522 6  98085266.43444  23953438.299
  23953431.5154         40.200          26.7004
 18  1  8 20  2 11.0000000  0 10G26G23G11G03G31G01G14G22G25G32
 127892200.977 5  99656262.05143  24337071.654
  24337066.9804         35.500          19.6004
 122462436.094 7  95425230.85045  23303821.973
  23303810.9704         45.500          30.7004
 124628197.738 6  97112827.14743  23715963.375
  23715953.7194         39.400          22.9004
 110318209.609 7  85962221.16647  20992854.102
  20992846.4394         47.800          42.1004
 108937227.218 8  84886119.68247  20730058.273
  20730047.3864         50.000          42.3004
 113673092.405 7  88576397.98046  21631273.098
  21631267.2524         46.300          39.1004
 116673946.737 7  90914728.98145  22202313.856
  22202303.9084         45.000          33.0004
 107847887.570 8  84037270.99847  20522766.795
  20522754.3854         51.000          45.3004
 128204409.495 7  99899520.21444  24396481.769
  24396474.0484         43.100          24.2004
 125879098.782 6  98087570.01544  23954000.988
  23953993.5594         39.400          26.1004
 18  1  8 20  2 12.0000000  0 10G26G23G11G03G31G01G14G22G25G32
 127889123.849 5  99653864.28843  24336485.622
  24336481.1834         35.000          19.9004
 122459898.416 7  95423253.43544  23303338.785
  23303327.8404         44.300          29.6004
 124631337.215 6  97115273.49743  23716561.188
  23716551.2984         39.000          22.8004
 110316317.220 8  85960746.58447  20992494.090
  20992486.1344         48.400          42.1004
 108938263.538 8  84886927.20747  20730255.439
  20730244.6114         50.500          42.3004
 113675086.562 7  88577951.86446  21631652.354
  21631646.2154         46.600          38.8004
 116676217.803 7  90916498.64345  22202746.409
  22202735.8744         45.200          32.5004
 107847236.869 8  84036763.95547  20522642.919
  20522630.3334         50.400          45.0004
 128205163.611 7  99900107.84043  24396625.202
  24396617.8324         42.800          22.6004
 125882055.470 6  98089873.92744  23954563.189
  23954556.1134         39.200          24.8004
 18  1  8 20  2 13.0000000  0 10G26G23G11G03G31G01G14G22G25G32
 127886046.722 5  99651466.52543  24335900.359
  24335895.4514         35.500          19.6004
 122457360.765 7  95421276.05544  23302856.217
  23302844.9794         43.900          29.6004
 124634476.799 6  97117719.93243  23717158.737
  23717148.9064         38.900          22.9004
 110314425.101 8  85959272.20447  20992134.147
  20992126.3084         48.400          42.0004
 108939300.405 8  84887735.14847  20730452.687
  20730441.9764         50.700          42.3004
 113677081.164 7  88579506.10346  21632031.559
  21632025.6554         46.900          38.9004
 116678488.933 7  90918268.35945  22203178.651
  22203168.4094         45.600          32.7004
 107846586.501 8  84036257.17347  20522519.296
  20522506.7104         50.700          45.1004
 128205918.302 7  99900695.91543  24396768.810
  24396761.4404         42.800          22.6004
 125885012.136 6  98092177.81544  23955126.032
  23955118.7214         39.400          26.5004
 18  1  8 20  2 14.0000000  0 10G26G23G11G03G31G01G14G22G25G32
 127882969.515 5  99649068.70843  24335315.326
  24335310.2424         35.300          19.6004
 122454823.047 7  95419298.60944  23302373.214
  23302362.0944         44.300          29.1004
 124637616.369 6  97120166.35643  23717756.013
  23717746.4744         38.700          23.0004
 110312533.134 8  85957797.93847  20991773.919
  20991766.4324         48.500          42.1004
 108940337.697 8  84888543.43047  20730650.101
  20730639.3314         51.000          42.2004
 113679076.105 7  88581060.59746  21632411.533
  21632405.2194         47.100          39.0004
 116680760.022 7  90920038.03645  22203611.288
  22203600.6954         45.800          32.7004
 107845936.382 8  84035750.59147  20522395.506
  20522382.8024         50.500          44.8004
 128206673.406 7  99901284.31043  24396912.399
  24396905.0884         42.500          22.6004
 125887968.636 6  98094481.58644  23955687.903
  23955681.5884         39.600          26.2004
 18  1  8 20  2 15.0000000  0 10G26G23G11G03G31G01G14G22G25G32
 127879892.754 5  99646671.23243  24334729.711
  24334724.4524         35.100          19.3004
 122452285.817 7  95417321.54744  23301890.413
  23301879.3514         44.700          29.9004
 124640756.506 6  97122613.21443  23718352.644
  23718343.9854         38.700          22.8004
 110310641.865 8  85956324.22847  20991414.075
  20991406.4134         48.000          42.1004
 108941375.969 8  84889352.47947  20730847.875
  20730836.6964         51.100          42.3004
 113681071.951 7  88582615.80346  21632791.410
  21632785.3304         46.700          39.0004
 116683031.631 7  90921808.11345  22204043.300
  22204032.8824         45.900          32.9004
 107845287.067 8  84035244.63247  20522271.956
  20522259.1354         51.000          44.9004
 128207429.506 7  99901873.47243  24397056.481
  24397048.5844         42.800          23.0004
 125890925.534 6  98096785.67144  23956250.869
  23956244.3194         39.400          24.8004
 18  1  8 20  2 16.0000000  0 10G26G23G11G03G31G01G14G22G25G32
 127876816.171 5  99644273.88643  24334143.725
  24334138.8174         34.100          19.6004
 122449748.782 7  95415344.64045  23301407.084
  23301396.4904         44.600          30.0004
 124643896.876 6  97125060.24743  23718951.006
  23718941.4684         39.200          22.8004
 110308751.014 7  85954850.83247  20991054.277
  20991046.6154         47.900          42.1004
 108942414.912 8  84890162.03847  20731045.723
  20731034.2504         50.900          42.4004
 113683068.379 7  88584171.45646  21633170.979
  21633165.4264         46.600          39.0004
 116685303.435 7  90923578.35245  22204475.626
  22204465.2094         46.100          33.2004
 107844638.236 8  84034739.05347  20522148.491
  20522135.9044         51.100          45.0004
 128208186.281 7  99902463.16743  24397200.608
  24397192.3594         43.200          22.5004
 125893882.537 6  98099089.82144  23956813.699
  23956806.7984         39.400          26.2004
 18  1  8 20  2 17.0000000  0 10G26G23G11G03G31G01G14G22G25G32
 127873739.387 5  99641876.39043  24333557.649
  24333553.8544         34.000          19.6004
 122447211.572 7  95413367.59044  23300924.792
  23300913.4954         43.900          29.9004
 124647037.150 6  97127507.21543  23719548.562
  23719539.2584         39.400          22.5004
 110306860.222 8  85953377.48947  20990694.690
  20990686.8514         48.100          42.1004
 108943454.196 8  84890971.87247  20731243.143
  20731232.5504         50.800          42.3004
 113685065.047 7  88585727.30246  21633551.032
  21633545.0694         46.400          38.9004
 116687575.102 7  90925348.49145  22204907.778
  22204897.5374         46.000          33.0004
 107843989.546 8  84034233.57847  20522025.262
  20522012.4414         50.900          44.8004
 128208943.413 7  99903053.14243  24397344.706
  24397336.3984         43.200          22.2004
 125896839.291 6  98101393.77344  23957375.897
  23957369.3474         38.500          25.9004
 18  1  8 20  2 18.0000000  0 10G26G23G11G03G31G01G14G22G25G32
 127870662.990 5  99639479.20543  24332972.288
  24332968.2594         33.700          19.9004
 122444674.773 7  95411390.86644  23300442.647
  23300431.1754         44.500          29.5004
 124650177.928 6  97129954.57943  23720145.922
  23720137.0294         38.300          22.3004
 110304970.060 8  85951904.64047  20990334.700
  20990326.8024         48.000          42.2004
 108944494.395 8  84891782.41547  20731441.139
  20731430.0774         50.700          42.4004
 113687062.555 7  88587283.79846  21633931.430
  21633925.2914         46.200          39.0004
 116689847.232 7  90927118.98045  22205340.482
  22205329.3614         45.500          33.1004
 107843341.600 8  84033728.67947  20521901.948
  20521889.0114         51.000          44.8004
 128209701.475 7  99903643.83743  24397489.713
  24397480.8194         43.300          22.6004
 125899796.382 6  98103698.00944  23957938.619
  23957932.1874         38.600          26.4004
 18  1  8 20  2 19.0000000  0 10G26G23G11G03G31G01G14G22G25G32
 127867586.342 5  99637081.80243  24332386.645
  24332382.4994         34.400          20.1004
 122442137.778 7  95409413.98645  23299959.680
  23299948.2074         44.800          30.0004
 124653318.514 6  97132401.79243  23720743.052
  23720734.6864         39.000          22.6004
 110303079.928 7  85950431.80846  20989974.970
  20989967.1894         47.700          41.8004
 108945534.866 8  84892593.17747  20731639.356
  20731628.5284         50.600          42.1004
 113689060.218 7  88588840.42046  21634311.892
  21634305.5194         46.800          39.0004
 116692119.153 7  90928889.31045  22205772.881
  22205762.2294         45.400          32.9004
 107842693.734 8  84033223.85847  20521778.425
  20521765.6634         50.200          44.7004
 128210459.817 7  99904234.75143  24397633.753
  24397625.2694         43.500          22.6004
 125902753.183 6  98106002.01844  23958501.510
  23958494.8434         38.700          25.5004
 18  1  8 20  2 20.0000000  0 10G26G23G11G03G31G01G14G22G25G32
 127864510.103 5  99634684.74443  24331801.700
  24331797.4374         34.200          19.9004
 122439601.185 7  95407437.42144  23299477.032
  23299465.5014         45.000          29.6004
 124656459.573 6  97134849.36643  23721341.417
  23721332.5234         38.700          22.9004
 110301190.425 7  85948959.47846  20989615.670
  20989607.9484         47.600          41.9004
 108946576.248 8  84893404.63846  20731837.243
  20731826.2984         50.500          41.9004
 113691058.714 7  88590397.69046  21634691.694
  21634685.6734         46.900          38.7004
 116694391.504 7  90930659.97445  22206204.984
  22206194.3324         45.000          33.0004
 107842046.587 8  84032719.58747  20521655.206
  20521642.6204         50.900          44.8004
 128211219.089 7  99904826.39143  24397778.006
  24397769.7574         43.200          22.8004
 125905710.320 6  98108306.28844  23959063.896
  23959057.5224         38.500          25.3004
 18  1  8 20  2 21.0000000  0 10G26G23G11G03G31G01G14G22G25G32
 127861434.079 5  99632287.86343  24331216.026
  24331212.2314         34.100          20.1004
 122437064.879 7  95405461.07844  23298994.326
  23298982.6784         45.800          29.4004
 124659600.993 6  97137297.22943  23721939.082
  23721930.1894         38.800          23.3004
 110299301.417 7  85947487.52247  20989255.710
  20989248.3404         47.600          42.0004
 108947618.401 8  84894216.71047  20732035.739
  20732024.8524         50.000          42.0004
 113693057.911 7  88591955.49746  21635072.344
  21635066.0304         47.000          38.9004
 116696664.182 7  90932430.88345  22206637.521
  22206626.9874         45.500          32.7004
 107841400.037 8  84032215.77747  20521532.052
  20521519.5244         51.000          44.6004
 128211979.133 7  99905418.64043  24397922.499
  24397914.3094         43.200          22.8004
 125908667.623 6  98110610.67444  23959627.034
  23959620.2514         39.000          26.7004
 18  1  8 20  2 22.0000000  0 10G26G23G11G03G31G01G14G22G25G32
 127858358.093 5  99629891.01543  24330631.193
  24330626.8714         34.200          20.4004
 122434528.550 7  95403484.71144  23298512.051
  23298499.9344         45.700          28.9004
 124662742.476 6  97139745.13443  23722536.903
  23722528.0094         39.200          22.2004
 110297412.631 8  85946015.73747  20988896.925
  20988889.3214         48.000          42.0004
 108948661.043 8  84895029.15746  20732233.810
  20732223.1004         50.000          41.8004
 113695057.494 7  88593513.62046  21635453.077
  21635446.7624         46.000          39.0004
 116698936.860 7  90934201.79945  22207069.999
  22207059.5234         46.100          33.3004
 107840753.779 8  84031712.20747  20521409.661
  20521396.6064         51.500          44.8004
 128212739.657 7  99906011.26643  24398067.428
  24398059.1214         42.700          22.6004
 125911624.848 6  98112915.00944  23960189.769
  23960183.1614         39.200          27.3004
 18  1  8 20  2 23.0000000  0 10G26G23G11G03G31G01G14G22G25G32
 127855282.274 5  99627494.26143  24330046.161
  24330041.6634         34.100          20.4004
 122431992.469 7  95401508.55644  23298029.441
  23298017.5584         45.400          29.4004
 124665884.254 6  97142193.27843  23723134.074
  23723125.5324         38.700          22.2004
 110295524.324 7  85944544.33546  20988537.112
  20988529.8604         47.800          41.9004
 108949704.405 8  84895842.16346  20732432.537
  20732421.5914         50.500          41.8004
 113697057.713 7  88595072.22846  21635833.565
  21635827.4854         45.900          39.0004
 116701209.801 7  90935972.91645  22207502.837
  22207492.1854         46.100          33.0004
 107840108.051 8  84031209.03747  20521286.437
  20521273.7344         51.800          44.8004
 128213500.930 7  99906604.46443  24398212.465
  24398203.9234         42.700          22.5004
 125914582.258 6  98115219.47744  23960751.890
  23960745.8684         39.400          26.2004
 18  1  8 20  2 24.0000000  0 10G26G23G11G03G31G01G14G22G25G32
 127852206.345 5  99625097.45343  24329460.048
  24329456.1954         34.000          20.4004
 122429456.334 7  95399532.35044  23297546.367
  23297534.9534         44.200          29.6004
 124669026.044 6  97144641.42643  23723732.835
  23723723.6494         39.200          22.8004
 110293636.169 7  85943073.04846  20988177.918
  20988170.1384         47.800          41.7004
 108950748.229 8  84896655.52946  20732631.151
  20732620.2644         50.700          41.8004
 113699058.306 7  88596631.13046  21636214.301
  21636208.2794         46.100          39.2004
 116703482.708 7  90937744.01345  22207935.331
  22207924.2694         46.000          33.1004
 107839462.604 8  84030706.08547  20521163.593
  20521151.1244         51.000          45.0004
 128214262.648 7  99907198.01343  24398357.714
  24398348.9964         42.500          22.3004
 125917539.479 6  98117523.80444  23961314.481
  23961308.4594         38.900          25.9004
 18  1  8 20  2 25.0000000  0 10G26G23G11G03G31G01G14G22G25G32
 127849130.786 5  99622700.91243  24328874.584
  24328870.6134         33.200          20.6004
 122426920.490 7  95397556.37144  23297064.137
  23297052.2554         43.900          29.3004
 124672168.168 6  97147089.82543  23724329.951
  23724321.5274         40.000          22.9004
 110291748.532 7  85941602.15946  20987818.727
  20987810.8884         47.900          41.8004
 108951792.812 8  84897469.49746  20732829.653
  20732818.9434         50.200          41.9004
 113701059.566 7  88598190.55646  21636594.900
  21636588.8194         46.400          39.2004
 116705755.937 7  90939515.36545  22208367.788
  22208357.1954         46.000          32.6004
 107838817.753 8  84030203.61247  20521040.908
  20521028.0294         51.000          45.1004
 128215025.180 7  99907792.18843  24398502.295
  24398493.8124         42.500          22.0004
 125920496.992 6  98119828.35244  23961876.458
  23961871.7844         38.200          25.7004
 18  1  8 20  2 26.0000000  0 10G26G23G11G03G31G01G14G22G25G32
 127846055.229 5  99620304.37043  24328289.583
  24328286.0234         33.200          20.6004
 122424384.761 7  95395580.47345  23296581.488
  23296569.5474         44.100          30.0004
 124675310.504 6  97149538.40343  23724928.762
  23724919.5754         39.800          22.8004
 110289861.218 8  85940131.52347  20987459.484
  20987451.8224         48.200          42.1004
 108952837.999 8  84898283.92946  20733028.750
  20733017.9814         50.300          41.9004
 113703061.363 7  88599750.39846  21636976.030
  21636969.8334         46.400          39.2004
 116708029.300 7  90941286.82045  22208800.486
  22208789.5994         45.900          32.1004
 107838173.302 8  84029701.44147  20520918.531
  20520905.7104         50.900          45.3004
 128215788.324 7  99908386.83043  24398647.274
  24398639.0844         42.400          22.0004
 125923454.481 6  98122132.88644  23962440.262
  23962434.6504         37.800          25.8004
 18  1  8 20  2 27.0000000  0 10G26G23G11G03G31G01G14G22G25G32
 127842979.759 5  99617907.90043  24327704.104
  24327701.0134         33.800          20.6004
 122421849.159 7  95393604.68444  23296098.513
  23296087.0994         44.100          29.8004
 124678452.991 6  97151987.09643  23725526.946
  23725517.5254         39.200          22.9004
 110287974.284 8  85938661.18347  20987100.491
  20987093.2974         48.300          42.0004
 108953883.825 8  84899098.85647  20733227.926
  20733217.0404         50.700          42.1004
 113705063.697 7  88601310.65346  21637356.852
  21637350.5964         46.400          39.3004
 116710302.795 7  90943058.37745  22209233.292
  22209222.2304         45.900          32.8004
 107837529.310 8  84029199.63347  20520795.861
  20520782.7474         50.800          45.1004
 128216552.106 7  99908981.98743  24398792.279
  24398784.4404         42.300          22.0004
 125926412.007 6  98124437.45544  23963001.919
  23962997.4214         37.700          26.5004
 18  1  8 20  2 28.0000000  0 10G26G23G11G03G31G01G14G22G25G32
 127839904.685 5  99615511.74243  24327119.434
  24327115.4634         33.600          20.6004
 122419313.905 7  95391629.15545  23295616.322
  23295604.9674         43.600          30.0004
 124681595.909 6  97154436.12843  23726124.418
  23726115.5244         38.600          23.0004
 110286087.902 7  85937191.27647  20986741.756
  20986733.9174         47.800          42.0004
 108954930.468 8  84899914.42247  20733426.856
  20733415.7354         50.200          42.0004
 113707066.751 7  88602871.47846  21637738.116
  21637732.0364         46.700          39.5004
 116712576.685 7  90944830.23345  22209666.005
  22209655.2364         46.500          32.8004
 107836885.956 8  84028698.31647  20520673.187
  20520660.4844         50.700          45.2004
 128217316.691 7  99909577.77243  24398938.372
  24398930.1814         42.100          22.3004
 125929369.793 6  98126742.21444  23963564.943
  23963560.2104         37.800          25.6004
 18  1  8 20  2 29.0000000  0 10G26G23G11G03G31G01G14G22G25G32
 127836829.430 5  99613115.44443  24326533.950
  24326530.2144         33.600          20.9004
 122416778.545 7  95389653.54944  23295133.541
  23295122.1274         43.900          29.6004
 124684738.763 6  97156885.10743  23726722.989
  23726713.5684         39.400          22.8004
 110284201.632 7  85935721.45947  20986382.718
  20986375.2314         47.800          42.1004
 108955977.527 8  84900730.31447  20733626.228
  20733614.9904         50.300          42.1004
 113709070.108 7  88604432.53046  21638119.749
  21638113.3174         47.200          39.3004
 116714850.452 7  90946601.99645  22210098.793
  22210087.6144         46.800          33.0004
 107836242.812 8  84028197.15947  20520551.154
  20520538.2174         51.200          45.1004
 128218081.719 7  99910173.91843  24399083.964
  24399075.7154         42.400          22.6004
 125932327.443 6  98129046.86844  23964128.967
  23964123.4144         38.600          26.2004
 18  1  8 20  2 30.0000000  0 10G26G23G11G03G31G01G14G22G25G32
 127833754.294 5  99610719.23943  24325948.521
  24325944.9024         34.200          20.6004
 122414243.339 7  95387678.06244  23294650.721
  23294639.4244         44.100          29.7004
 124687881.854 6  97159334.27143  23727321.036
  23727311.6154         39.400          22.8004
 110282315.774 7  85934251.95746  20986023.996
  20986015.9234         47.800          41.7004
 108957025.202 8  84901546.68447  20733825.824
  20733814.4104         50.200          42.4004
 113711074.057 7  88605994.05346  21638501.159
  21638494.2584         46.400          39.3004
 116717124.429 7  90948373.92645  22210531.898
  22210520.4844         46.500          32.8004
 107835600.123 8  84027696.36547  20520428.922
  20520415.9254         51.300          44.9004
 128218847.370 7  99910770.55043  24399229.746
  24399221.2044         42.500          22.3004
 125935285.092 6  98131351.52944  23964691.414
  23964686.2134         38.700          25.6004
 18  1  8 20  2 31.0000000  0 10G26G23G11G03G31G01G14G22G25G32
 127830679.503 5  99608323.29743  24325363.434
  24325359.8744         33.700          20.4004
 122411708.467 7  95385702.84344  23294168.204
  23294157.2004         43.300          29.8004
 124691025.328 6  97161783.72643  23727919.781
  23727909.8324         38.900          23.0004
 110280430.445 7  85932782.87147  20985665.253
  20985657.7074         47.800          42.1004
 108958073.734 8  84902363.72447  20734025.276
  20734014.1554         50.200          42.4004
 113713078.710 7  88607556.11346  21638882.934
  21638875.8574         46.400          39.2004
 116719398.755 7  90950146.12745  22210964.823
  22210953.2334         46.500          32.8004
 107834958.095 8  84027196.08447  20520306.432
  20520293.6704         51.200          45.1004
 128219613.886 7  99911367.83943  24399375.267
  24399367.2534         42.200          22.5004
 125938243.000 6  98133656.39444  23965254.625
  23965249.0134         39.200          26.2004
 18  1  8 20  2 32.0000000  0 10G26G23G11G03G31G01G14G22G25G32
 127827604.798 5  99605927.41143  24324778.080
  24324774.5204         34.600          20.1004
 122409173.730 7  95383727.72745  23293686.475
  23293674.8864         43.500          30.2004
 124694169.005 6  97164233.35243  23728517.387
  23728508.2594         39.600          22.2004
 110278545.478 8  85931314.06847  20985306.228
  20985298.8004         48.200          42.0004
 108959122.878 8  84903181.23547  20734224.764
  20734213.7614         50.700          42.4004
 113715083.910 7  88609118.60946  21639264.356
  21639257.6904         46.400          39.3004
 116721673.216 7  90951918.43145  22211397.333
  22211386.4474         45.500          33.2004
 107834316.504 8  84026696.14547  20520184.676
  20520171.4454         50.800          44.9004
 128220381.030 7  99911965.60843  24399521.470
  24399512.9874         42.000          22.8004
 125941200.993 6  98135961.31644  23965817.892
  23965811.4604         39.000          27.2004
 18  1  8 20  2 33.0000000  0 10G26G23G11G03G31G01G14G22G25G32
 127824530.121 5  99603531.57543  24324193.685
  24324189.6564         34.900          20.1004
 122406638.987 7  95381752.60644  23293204.024
  23293192.7864         43.400          29.9004
 124697312.742 6  97166683.02243  23729115.196
  23729106.6544         39.800          22.2004
 110276660.763 8  85929845.46247  20984947.619
  20984940.3664         48.500          42.0004
 108960172.535 8  84903999.14647  20734424.703
  20734413.4064         50.900          42.2004
 113717089.529 7  88610681.43146  21639645.958
  21639639.1164         46.600          39.2004
 116723947.730 7  90953690.78545  22211829.996
  22211818.7584         45.600          33.1004
 107833675.238 8  84026196.45847  20520062.509
  20520049.4544         51.100          45.1004
 128221148.703 7  99912563.77743  24399667.303
  24399659.2304         42.000          22.6004
 125944158.902 6  98138266.17344  23966380.740
  23966374.6604         39.100          26.3004
 18  1  8 20  2 34.0000000  0 10G26G23G11G03G31G01G14G22G25G32
 127821455.552 5  99601135.81043  24323609.593
  24323604.5684         34.800          20.1004
 122404104.446 7  95379777.63844  23292721.300
  23292710.0624         42.700          29.4004
 124700456.724 6  97169132.86943  23729713.978
  23729704.7334         39.100          22.6004
 110274776.445 7  85928377.15546  20984589.145
  20984581.3654         47.900          41.9004
 108961222.868 8  84904817.58347  20734624.459
  20734613.1034         51.200          42.5004
 113719095.729 7  88612244.70346  21640027.675
  21640020.7744         46.700          39.3004
 116726222.450 7  90955463.28845  22212262.872
  22212251.9274         46.000          33.2004
 107833034.445 8  84025697.13647  20519940.718
  20519927.7804         50.800          45.0004
 128221917.066 6  99913162.48743  24399813.376
  24399805.4794         41.600          22.6004
 125947116.915 6  98140571.12344  23966944.372
  23966937.6474         39.500          25.1004
 18  1  8 20  2 35.0000000  0 10G26G23G11G03G31G01G14G22G25G32
 127818381.191 5  99598740.20343  24323024.511
  24323019.1924         34.800          20.1004
 122401570.109 7  95377802.82444  23292239.324
  23292228.1454         42.600          29.6004
 124703600.992 6  97171582.94043  23730312.494
  23730302.7804         39.200          22.6004
 110272892.549 7  85926909.18946  20984230.601
  20984223.1144         47.800          41.9004
 108962273.903 8  84905636.57447  20734824.619
  20734813.2634         51.000          42.5004
 113721102.535 7  88613808.45046  21640409.611
  21640402.7104         46.500          39.4004
 116728497.404 7  90957235.97645  22212696.248
  22212684.7764         45.600          33.0004
 107832394.175 8  84025198.22447  20519818.352
  20519805.6494         50.700          45.1004
 128222686.125 6  99913761.75643  24399959.306
  24399952.1134         41.100          22.2004
 125950075.031 6  98142876.16244  23967506.388
  23967500.8354         39.000          25.5004
 18  1  8 20  2 36.0000000  0 10G26G23G11G03G31G01G14G22G25G32
 127815306.839 5  99596344.59643  24322439.875
  24322434.3814         35.000          20.9004
 122399035.862 7  95375828.08544  23291756.672
  23291745.6684         42.700          29.9004
 124706745.344 6  97174033.10243  23730911.353
  23730901.6394         38.800          22.9004
 110271008.986 8  85925441.47747  20983872.096
  20983864.7274         48.000          42.1004
 108963325.494 8  84906455.99747  20735024.769
  20735013.7664         50.800          42.3004
 113723109.841 7  88615372.58046  21640791.822
  21640784.7454         46.600          39.4004
 116730772.449 7  90959008.73945  22213128.972
  22213117.5584         46.000          33.4004
 107831754.292 8  84024699.61147  20519696.795
  20519684.0914         51.100          45.2004
 128223455.771 6  99914361.46743  24400105.347
  24400098.3884         40.400          22.5004
 125953033.154 6  98145181.20344  23968069.478
  23968063.4574         39.400          25.4004
 18  1  8 20  2 37.0000000  0 10G26G23G11G03G31G01G14G22G25G32
 127812232.820 5  99593949.24143  24321854.847
  24321849.1774         35.400          20.9004
 122396501.875 7  95373853.55844  23291274.663
  23291263.1914         42.800          29.8004
 124709890.096 6  97176483.56643  23731509.351
  23731499.6954         39.100          22.9004
 110269125.898 7  85923974.13447  20983513.872
  20983506.1504         47.800          42.1004
 108964377.872 8  84907276.02647  20735224.878
  20735213.6984         50.900          42.3004
 113725117.825 7  88616937.24246  21641173.418
  21641166.7514         46.400          39.6004
 116733047.793 7  90960781.73445  22213561.467
  22213550.6984         45.600          33.5004
 107831114.997 8  84024201.46447  20519575.152
  20519562.6254         50.900          45.1004
 128224226.180 6  99914961.78943  24400251.380
  24400244.7144         39.500          22.5004
 125955991.475 6  98147486.38644  23968632.778
  23968626.4054         39.500          24.4004
 18  1  8 20  2 38.0000000  0 10G26G23G11G03G31G01G14G22G25G32
 127809158.692 5  99591553.82843  24321270.384
  24321264.1284         35.000          20.4004
 122393967.873 7  95371879.01344  23290792.636
  23290781.1054         43.100          29.7004
 124713034.843 6  97178934.01243  23732107.758
  23732097.8674         39.400          23.8004
 110267243.013 7  85922506.95247  20983155.656
  20983147.9354         47.600          42.1004
 108965430.680 8  84908096.39347  20735425.021
  20735414.0764         50.800          42.2004
 113727126.173 7  88618502.18746  21641555.669
  21641548.9444         46.500          39.3004
 116735323.145 7  90962554.73445  22213995.037
  22213983.8584         45.800          33.2004
 107830475.988 8  84023703.52947  20519453.555
  20519440.4414         50.900          45.1004
 128224997.074 6  99915562.49643  24400397.951
  24400391.7544         39.200          22.5004
 125958949.687 6  98149791.48844  23969195.425
  23969188.8174         39.800          24.6004
 18  1  8 20  2 39.0000000  0 10G26G23G11G03G31G01G14G22G25G32
 127806084.839 5  99589158.63943  24320685.440
  24320679.0084         34.700          19.9004
 122391434.101 7  95369904.64144  23290310.113
  23290299.0504         43.600          29.8004
 124716179.919 6  97181384.72444  23732705.962
  23732696.9514         39.100          24.3004
 110265360.605 7  85921040.14747  20982797.145
  20982789.8934         47.600          42.0004
 108966484.267 8  84908917.37347  20735625.451
  20735614.7404         50.300          42.3004
 113729135.166 7  88620067.63746  21641937.931
  21641931.3234         46.600          38.9004
 116737598.752 7  90964327.93445  22214427.616
  22214416.8474         45.800          33.2004
 107829837.538 8  84023206.03647  20519332.223
  20519319.2854         50.700          45.1004
 128225768.710 6  99916163.78143  24400544.335
  24400538.3724         38.800          22.6004
 125961908.044 6  98152096.70444  23969758.166
  23969751.9694         39.900          26.0004
 18  1  8 20  2 40.0000000  0 10G26G23G11G03G31G01G14G22G25G32
 127803011.019 5  99586763.47143  24320099.626
  24320094.3084         35.800          20.1004
 122388900.450 7  95367930.37544  23289828.227
  23289816.9314         43.700          29.8004
 124719325.173 6  97183835.56744  23733303.927
  23733295.3274         39.000          24.8004
 110263478.536 7  85919573.60047  20982439.106
  20982431.5024         47.700          42.0004
 108967538.430 8  84909738.79747  20735826.173
  20735814.9354         50.300          42.3004
 113731144.689 7  88621633.49946  21642320.545
  21642313.8794         46.500          38.9004
 116739874.482 7  90966101.22545  22214860.808
  22214849.6874         45.600          33.5004
 107829199.497 8  84022708.86547  20519210.592
  20519197.7124         50.300          44.8004
 128226540.983 6  99916765.55643  24400691.634
  24400685.4954         38.400          22.6004
 125964866.443 6  98154401.92944  23970320.926
  23970314.7874         39.400          25.6004
 18  1  8 20  2 41.0000000  0 10G26G23G11G03G31G01G14G22G25G32
 127799937.581 5  99584368.57543  24319515.249
  24319509.6374         35.700          20.4004
 122386367.192 7  95365956.40944  23289346.191
  23289335.5394         44.000          29.9004
 124722470.887 6  97186286.77544  23733903.071
  23733893.6494         38.900          25.0004
 110261597.060 8  85918107.51347  20982080.976
  20982073.4304         48.200          42.0004
 108968593.467 8  84910560.91047  20736027.033
  20736016.2644         50.200          42.5004
 113733154.992 7  88623199.96846  21642702.805
  21642696.4314         46.600          38.9004
 116742150.649 7  90967874.86345  22215293.834
  22215282.8304         45.400          33.2004
 107828562.151 8  84022212.23247  20519089.292
  20519076.7064         50.000          44.9004
 128227314.098 6  99917368.00143  24400839.155
  24400832.8994         37.900          22.6004
 125967825.133 6  98156707.39544  23970884.852
  23970877.6584         39.000          24.5004
 18  1  8 20  2 42.0000000  0 10G26G23G11G03G31G01G14G22G25G32
 127796864.125 5  99581973.66743  24318931.066
  24318924.4584         35.100          20.4004
 122383833.915 7  95363982.42745  23288864.636
  23288853.2224         43.600          30.5004
 124725616.606 6  97188737.98744  23734501.804
  23734492.6174         39.600          24.6004
 110259715.807 8  85916641.59746  20981722.835
  20981715.4654         48.300          41.9004
 108969648.981 8  84911383.38347  20736228.299
  20736216.8274         50.300          42.7004
 113735165.686 7  88624766.73846  21643085.276
  21643078.8444         46.600          39.0004
 116744426.804 7  90969648.48445  22215727.382
  22215716.0854         45.600          33.6004
 107827925.078 8  84021715.80947  20518968.255
  20518955.4934         50.500          45.0004
 128228087.744 6  99917970.83643  24400986.318
  24400980.0044         38.200          22.5004
 125970783.742 6  98159012.81044  23971447.602
  23971440.8774         39.800          24.7004
 18  1  8 20  2 43.0000000  0 10G26G23G11G03G31G01G14G22G25G32
 127793790.678 5  99579578.78043  24318346.272
  24318340.0164         35.500          20.6004
 122381300.747 7  95362008.52144  23288381.826
  23288371.0564         44.000          29.9004
 124728762.480 6  97191189.31044  23735100.707
  23735090.7584         40.000          25.1004
 110257834.877 8  85915175.94247  20981365.301
  20981357.7554         48.100          42.1004
 108970705.080 8  84912206.32247  20736428.953
  20736417.7734         50.400          42.6004
 113737176.880 7  88626333.90046  21643468.372
  21643461.5304         46.100          38.8004
 116746703.068 7  90971422.19445  22216160.359
  22216149.4144         45.900          33.8004
 107827288.434 8  84021219.72047  20518846.982
  20518834.1624         50.800          44.9004
 128228861.960 6  99918574.11543  24401133.960
  24401127.1184         37.900          22.2004
 125973742.347 6  98161318.21544  23972010.925
  23972003.3804         39.600          24.8004
 18  1  8 20  2 44.0000000  0 10G26G23G11G03G31G01G14G22G25G32
 127790717.546 5  99577184.14743  24317759.719
  24317755.0454         35.900          20.4004
 122378767.845 7  95360034.83345  23287900.040
  23287889.0364         44.100          30.2004
 124731908.706 6  97193640.90644  23735699.108
  23735689.7454         40.000          25.7004
 110255954.436 7  85913710.66147  20981007.045
  20980999.6174         47.800          42.2004
 108971761.934 8  84913029.84747  20736630.301
  20736619.2384         50.600          42.5004
 113739188.707 7  88627901.56246  21643851.072
  21643844.4064         46.200          39.1004
 116748979.619 7  90973196.13045  22216593.349
  22216582.6384         45.800          34.0004
 107826652.346 8  84020724.06947  20518725.753
  20518713.2264         50.900          45.1004
 128229636.947 6  99919178.00043  24401281.381
  24401274.7734         38.300          22.0004
 125976701.140 6  98163623.76944  23972573.549
  23972566.6494         39.900          25.2004
 18  1  8 20  2 45.0000000  0 10G26G23G11G03G31G01G14G22G25G32
 127787644.342 6  99574789.44143  24317175.201
  24317170.3514         36.100          19.9004
 122376234.888 7  95358061.10445  23287418.221
  23287406.8664         44.300          30.2004
 124735054.955 6  97196092.53544  23736298.301
  23736288.1184         39.400          24.7004
 110254074.178 8  85912245.52647  20980649.339
  20980642.0284         48.100          42.3004
 108972819.263 8  84913853.74147  20736831.399
  20736820.1614         51.200          42.4004
 113741200.936 7  88629469.52746  21644233.617
  21644227.6544         46.000          39.0004
 116751256.172 7  90974970.07545  22217026.381
  22217015.4944         45.400          33.6004
 107826016.534 8  84020228.63347  20518605.195
  20518592.0234         51.400          44.9004
 128230412.425 6  99919782.25643  24401428.380
  24401422.4174         38.200          22.0004
 125979659.834 6  98165929.24944  23973136.998
  23973129.3934         39.400          25.3004
 18  1  8 20  2 46.0000000  0 10G26G23G11G03G31G01G14G22G25G32
 127784571.371 5  99572394.92043  24316590.556
  24316585.3554         35.800          20.1004
 122373702.273 7  95356087.64244  23286936.055
  23286925.0514         43.600          29.5004
 124738201.531 6  97198544.41944  23736897.024
  23736887.3694         39.500          25.0004
 110252194.439 7  85910780.79847  20980291.870
  20980283.7974         47.900          42.2004
 108973877.358 8  84914678.22547  20737032.867
  20737021.6294         51.000          42.6004
 113743213.851 7  88631038.03546  21644616.533
  21644610.5704         46.300          39.3004
 116753533.032 7  90976744.24745  22217459.925
  22217449.0384         45.800          33.9004
 107825381.342 8  84019733.68347  20518484.074
  20518471.2534         50.800          44.9004
 128231188.702 6  99920387.16643  24401576.659
  24401569.8754         38.900          22.0004
 125982618.710 6  98168234.87144  23973699.595
  23973692.4014         39.900          26.2004
 18  1  8 20  2 47.0000000  0 10G26G23G11G03G31G01G14G22G25G32
 127781498.405 5  99570000.38343  24316006.241
  24316000.7474         35.700          20.4004
 122371169.666 7  95354114.18344  23286454.705
  23286443.0564         43.900          29.7004
 124741348.232 6  97200996.39344  23737495.336
  23737486.0324         39.800          25.0004
 110250314.973 7  85909316.27747  20979934.048
  20979926.4444         47.900          42.1004
 108974935.979 8  84915503.13147  20737234.068
  20737222.9474         51.400          42.8004
 113745227.219 7  88632606.89446  21644999.794
  21644993.7134         46.700          39.4004
 116755809.971 7  90978518.49045  22217892.965
  22217882.4894         45.200          34.0004
 107824746.505 8  84019238.99947  20518363.203
  20518350.3824         50.700          45.0004
 128231965.504 6  99920992.45543  24401724.012
  24401717.7554         38.600          22.0004
 125985577.560 6  98170540.46244  23974263.501
  23974255.4284         40.100          25.6004
 18  1  8 20  2 48.0000000  0 10G26G23G11G03G31G01G14G22G25G32
 127778425.778 5  99567606.12943  24315421.652
  24315416.4514         35.700          21.1004
 122368637.399 7  95352140.99644  23285972.625
  23285961.1534         43.600          29.9004
 124744495.305 6  97203448.65743  23738094.344
  23738084.6304         39.400          23.0004
 110248436.054 8  85907852.18747  20979576.432
  20979569.2384         48.100          42.4004
 108975995.422 8  84916328.67147  20737435.707
  20737424.6444         51.500          42.8004
 113747241.310 7  88634176.31446  21645383.110
  21645376.6784         46.100          39.1004
 116758087.235 7  90980292.98045  22218326.467
  22218315.9324         45.400          34.1004
 107824112.283 8  84018744.80047  20518242.713
  20518230.0104         50.700          45.0004
 128232743.149 6  99921598.41343  24401872.782
  24401865.7644         38.900          22.2004
 125988536.652 6  98172846.24944  23974826.765
  23974818.8674         40.400          26.7004
 18  1  8 20  2 49.0000000  0 10G26G23G11G03G31G01G14G22G25G32
 127775352.872 5  99565211.66943  24314837.069
  24314831.7504         35.900          20.9004
 122366104.818 7  95350167.54844  23285490.334
  23285478.6864         43.700          29.9004
 124747642.121 6  97205900.71644  23738693.427
  23738683.7134         39.900          25.8004
 110246557.063 8  85906388.04047  20979218.837
  20979211.1754         48.100          42.4004
 108977055.053 8  84917154.35847  20737637.460
  20737626.1044         51.600          42.8004
 113749255.508 7  88635745.81846  21645766.752
  21645760.0864         46.300          39.4004
 116760364.238 7  90982067.26945  22218759.878
  22218749.4604         45.900          33.7004
 107823478.081 8  84018250.61947  20518122.144
  20518109.2064         51.000          45.0004
 128233520.975 6  99922204.51443  24402020.217
  24402014.0204         39.200          22.0004
 125991495.327 6  98175151.70644  23975390.107
  23975381.5654         40.500          26.7004
 18  1  8 20  2 50.0000000  0 10G26G23G11G03G31G01G14G22G25G32
 127772280.320 5  99562817.48543  24314252.846
  24314246.8244         35.300          21.1004
 122363572.703 7  95348194.47744  23285009.000
  23284997.7044         43.100          29.9004
 124750789.475 6  97208353.20244  23739292.608
  23739282.3084         39.900          25.9004
 110244678.757 8  85904924.41947  20978861.368
  20978854.0574         48.200          42.3004
 108978115.643 8  84917980.78547  20737839.105
  20737828.2774         51.700          42.7004
 113751270.553 7  88637315.97946  21646149.771
  21646143.6904         46.300          39.2004
 116762641.712 7  90983841.91945  22219193.123
  22219182.5304         46.100          33.5004
 107822844.647 8  84017757.03347  20518001.589
  20517988.3584         50.900          44.9004
 128234299.749 6  99922811.33943  24402169.473
  24402162.2214         39.000          22.5004
 125994454.423 6  98177457.48244  23975953.126
  23975944.8194         40.600          26.0004
 18  1  8 20  2 51.0000000  0 10G26G23G11G03G31G01G14G22G25G32
 127769208.025 5  99560423.48043  24313667.982
  24313661.9014         35.400          21.1004
 122361040.830 7  95346221.59444  23284527.075
  23284515.0164         42.400          29.5004
 124753937.140 6  97210805.93944  23739891.748
  23739881.4474         40.200          25.3004
 110242800.908 8  85903461.16547  20978504.294
  20978496.7484         48.200          42.4004
 108979176.972 8  84918807.79847  20738041.091
  20738030.0294         51.200          42.8004
 113753286.249 7  88638886.64946  21646533.653
  21646527.4564         46.300          39.0004
 116764919.459 7  90985616.78145  22219626.239
  22219615.5874         45.800          33.4004
 107822211.771 8  84017263.88547  20517881.099
  20517867.9854         50.400          45.1004
 128235079.327 6  99923418.80143  24402316.421
  24402310.7514         39.000          22.8004
 125997413.671 6  98179763.38344  23976516.219
  23976507.9114         41.400          26.8004
 18  1  8 20  2 52.0000000  0 10G26G23G11G03G31G01G14G22G25G32
 127766135.863 5  99558029.59743  24313083.175
  24313077.2714         35.200          21.3004
 122358509.090 7  95344248.80944  23284045.379
  23284034.0824         43.200          29.6004
 124757084.993 6  97213258.80544  23740491.411
  23740480.8184         40.100          25.8004
 110240923.453 8  85901998.21247  20978147.091
  20978139.5464         48.500          42.4004
 108980238.940 8  84919635.31147  20738243.041
  20738232.4484         51.300          42.9004
 113755302.495 7  88640457.75646  21646917.095
  21646910.6634         46.600          39.1004
 116767197.378 7  90987391.78745  22220059.899
  22220049.1304         45.800          33.9004
 107821579.333 8  84016771.07847  20517760.721
  20517748.0184         50.200          44.9004
 128235859.460 6  99924026.70143  24402465.175
  24402458.8024         38.700          22.8004
 126000372.961 6  98182069.32344  23977079.534
  23977071.1674         40.900          26.2004
 18  1  8 20  2 53.0000000  0 10G26G23G11G03G31G01G14G22G25G32
 127763063.724 5  99555635.72043  24312498.203
  24312493.0604         35.500          21.3004
 122355977.413 7  95342276.06844  23283563.771
  23283552.1814         43.800          29.5004
 124760232.948 6  97215711.76644  23741089.979
  23741079.6204         40.400          24.7004
 110239046.269 8  85900535.47647  20977789.828
  20977782.3414         48.500          42.5004
 108981301.441 8  84920463.22847  20738445.207
  20738434.4964         51.200          43.1004
 113757319.204 7  88642029.21346  21647301.041
  21647294.5504         46.500          39.2004
 116769475.337 7  90989166.81845  22220493.397
  22220482.9204         46.300          33.4004
 107820947.270 8  84016278.55647  20517640.538
  20517627.2484         50.800          45.1004
 128236640.238 6  99924635.09843  24402614.539
  24402607.8144         39.000          22.5004
 126003332.225 6  98184375.24144  23977642.703
  23977634.4544         40.300          26.0004
 18  1  8 20  2 54.0000000  0 10G26G23G11G03G31G01G14G22G25G32
 127759991.561 5  99553241.83543  24311913.758
  24311908.3224         35.900          21.3004
 122353445.758 7  95340303.34844  23283081.767
  23283070.2944         44.000          29.4004
 124763380.995 6  97218164.77444  23741688.917
  23741678.7934         40.600          25.4004
 110237169.324 8  85899072.92747  20977432.908
  20977425.0114         48.100          42.2004
 108982364.459 8  84921291.55247  20738647.553
  20738636.6084         50.400          43.1004
 113759336.297 7  88643600.97946  21647685.001
  21647678.2184         46.300          39.4004
 116771753.356 7  90990941.90045  22220926.377
  22220916.1354         45.500          33.5004
 107820315.526 8  84015786.29047  20517520.323
  20517507.6794         50.800          45.1004
 128237421.510 6  99925243.86743  24402762.636
  24402756.2634         39.100          22.8004
 126006291.428 6  98186681.10144  23978205.365
  23978197.9364         40.100          26.1004
 18  1  8 20  2 55.0000000  0 10G26G23G11G03G31G01G14G22G25G32
 127756919.647 5  99550848.14243  24311329.296
  24311323.9194         35.600          21.5004
 122350914.313 7  95338330.80044  23282599.931
  23282588.4594         43.800          28.7004
 124766529.300 6  97220617.98744  23742287.875
  23742277.6334         40.600          25.2004
 110235292.814 8  85897610.70847  20977075.664
  20977068.1184         48.300          42.5004
 108983428.188 8  84922120.43147  20738849.640
  20738838.9884         50.200          42.8004
 113761354.027 7  88645173.23346  21648068.447
  21648062.5434         46.200          39.4004
 116774031.602 7  90992717.15945  22221360.236
  22221350.1124         45.500          33.1004
 107819684.301 8  84015294.42647  20517400.201
  20517387.2054         50.800          44.9004
 128238203.497 6  99925853.19943  24402911.424
  24402904.9924         39.500          22.9004
 126009250.745 6  98188987.05544  23978769.377
  23978760.8934         40.300          26.9004
 18  1  8 20  2 56.0000000  0 10G26G23G11G03G31G01G14G22G25G32
 127753847.852 6  99548454.53443  24310744.810
  24310739.6094         36.200          22.0004
 122348383.104 7  95336358.42944  23282118.565
  23282107.0924         44.100          29.9004
 124769677.915 6  97223071.45144  23742887.045
  23742876.9204         40.200          24.9004
 110233416.758 8  85896148.85047  20976718.756
  20976710.8004         48.700          42.4004
 108984492.610 8  84922949.84847  20739052.191
  20739041.9504         50.200          43.0004
 113763372.383 7  88646745.97546  21648453.056
  21648446.3314         46.300          39.5004
 116776310.095 7  90994492.59645  22221793.851
  22221783.6104         45.500          33.4004
 107819053.632 8  84014802.99447  20517280.182
  20517267.3614         50.900          45.1004
 128238986.176 6  99926463.09243  24403059.986
  24403054.0824         39.900          22.8004
 126012210.199 6  98191293.11344  23979332.658
  23979323.7644         40.300          26.7004
 18  1  8 20  2 57.0000000  0 10G26G23G11G03G31G01G14G22G25G32
 127750776.088 5  99546060.95143  24310159.612
  24310154.7634         35.500          21.7004
 122345851.899 7  95334386.06644  23281637.078
  23281625.1364         44.200          29.7004
 124772826.573 6  97225524.95744  23743486.362
  23743476.2384         39.800          25.6004
 110231540.943 8  85894687.17847  20976361.572
  20976353.9684         49.100          42.6004
 108985557.571 8  84923779.68547  20739254.975
  20739244.5574         50.300          42.9004
 113765391.168 7  88648319.05946  21648836.918
  21648830.7794         46.600          39.4004
 116778588.650 7  90996268.09445  22222227.803
  22222217.0344         45.000          33.7004
 107818423.283 8  84014311.81547  20517160.335
  20517147.3974         51.000          45.1004
 128239769.410 6  99927073.41843  24403210.256
  24403202.8864         39.900          23.6004
 126015169.595 6  98193599.13944  23979895.467
  23979887.2194         40.600          27.5004
 18  1  8 20  2 58.0000000  0 10G26G23G11G03G31G01G14G22G25G32
 127747704.579 5  99543667.59343  24309575.035
  24309570.4794         35.500          21.8004
 122343320.960 7  95332413.90844  23281155.659
  23281143.6014         43.600          29.1004
 124775975.571 6  97227978.72344  23744085.040
  23744075.4444         39.900          24.2004
 110229665.630 8  85893225.89447  20976005.196
  20975997.0644         48.800          42.5004
 108986623.271 8  84924610.10647  20739457.619
  20739447.4954         50.300          43.0004
 113767410.599 7  88649892.63646  21649221.283
  21649214.9684         46.600          39.3004
 116780867.461 7  90998043.78945  22222661.243
  22222650.8844         45.000          33.6004
 107817793.498 8  84013821.07647  20517040.414
  20517027.5934         51.200          45.1004
 128240553.419 6  99927684.33543  24403359.393
  24403352.6094         39.900          23.6004
 126018129.179 6  98195905.30744  23980458.439
  23980450.3664         40.700          27.0004
 18  1  8 20  2 59.0000000  0 10G26G23G11G03G31G01G14G22G25G32
 127744633.042 5  99541274.19843  24308991.085
  24308985.7084         35.700          21.8004
 122340790.014 7  95330441.74344  23280673.523
  23280661.7574         43.800          29.6004
 124779124.588 6  97230432.49944  23744684.812
  23744674.5124         39.900          25.0004
 110227790.519 8  85891764.76247  20975648.139
  20975640.7114         48.700          42.5004
 108987689.443 8  84925440.88547  20739660.484
  20739650.2434         49.900          42.7004
 113769430.452 7  88651466.54446  21649605.655
  21649599.2814         46.300          39.7004
 116783146.313 7  90999819.52945  22223094.338
  22223084.3904         45.100          33.3004
 107817164.021 8  84013330.57247  20516920.597
  20516907.7764         51.200          45.0004
 128241337.911 6  99928295.62943  24403508.884
  24403501.6314         39.900          23.6004
 126021088.665 6  98198211.40444  23981021.805
  23981013.7314         40.500          26.4004
 18  1  8 20  3  0.0000000  0 10G26G23G11G03G31G01G14G22G25G32
 127741561.813 6  99538881.03643  24308406.033
  24308401.3594         36.100          21.7004
 122338259.453 7  95328469.87844  23280191.761
  23280180.2884         44.300          29.7004
 124782274.035 6  97232886.60944  23745283.997
  23745274.1664         40.300          24.9004
 110225916.021 8  85890304.11947  20975291.208
  20975283.2524         48.000          42.7004
 108988756.494 8  84926272.35347  20739863.556
  20739853.3144         49.900          42.5004
 113771451.034 7  88653041.02946  21649990.106
  21649983.9674         45.900          39.4004
 116785425.525 7  91001595.53745  22223528.540
  22223517.9474         45.100          33.7004
 107816535.207 8  84012840.58647  20516800.959
  20516788.0214         51.500          44.8004
 128242123.250 6  99928907.56643  24403658.266
  24403650.8384         39.700          21.8004
 126024048.435 6  98200517.70944  23981584.548
  23981576.8854         40.600          25.6004
 18  1  8 20  3  1.0000000  0 10G26G23G11G03G31G01G14G22G25G32
 127738490.863 6  99536488.07243  24307822.466
  24307817.1484         36.400          21.7004
 122335729.109 7  95326498.18444  23279710.677
  23279698.7364         44.800          29.8004
 124785423.807 6  97235340.99244  23745883.036
  23745873.5564         40.100          26.3004
 110224041.975 8  85888843.82047  20974934.613
  20974926.6584         48.000          42.4004
 108989824.273 8  84927104.38347  20740066.890
  20740056.4724         50.000          42.6004
 113773472.302 7  88654616.03646  21650374.515
  21650368.3184         46.000          39.0004
 116787705.000 7  91003371.74445  22223962.579
  22223951.8094         45.500          33.4004
 107815906.943 8  84012351.02647  20516681.402
  20516668.6404         51.400          44.9004
 128242909.361 6  99929520.11643  24403807.458
  24403800.4984         40.100          22.3004
 126027008.361 6  98202824.13844  23982147.242
  23982140.1064         40.000          25.2004
 18  1  8 20  3  2.0000000  0 10G26G23G11G03G31G01G14G22G25G32
 127735419.701 6  99534094.94943  24307238.151
  24307232.5984         36.000          21.7004
 122333198.639 7  95324526.38944  23279229.392
  23279217.1584         45.000          29.7004
 124788573.485 6  97237795.27844  23746481.664
  23746473.0044         40.200          25.2004
 110222168.028 8  85887383.60747  20974578.265
  20974570.6024         48.500          42.7004
 108990892.410 8  84927936.69547  20740269.994
  20740259.8114         50.100          42.7004
 113775493.784 7  88656191.21646  21650759.252
  21650753.2894         46.000          39.0004
 116789984.372 7  91005147.87345  22224396.365
  22224385.1274         45.800          33.0004
 107815278.856 8  84011861.61147  20516561.672
  20516549.0864         51.300          44.8004
 128243695.826 6  99930132.94343  24403956.762
  24403950.3894         39.600          22.9004
 126029968.089 6  98205130.42844  23982710.678
  23982702.9564         39.500          25.3004
 18  1  8 20  3  3.0000000  0 10G26G23G11G03G31G01G14G22G25G32
 127732348.877 6  99531702.11343  24306653.644
  24306647.9744         36.100          21.3004
 122330668.479 7  95322554.83544  23278747.327
  23278736.1484         45.200          29.6004
 124791723.531 6  97240249.86244  23747081.998
  23747072.5184         39.900          25.9004
 110220294.611 8  85885923.79947  20974221.796
  20974214.0744         49.000          42.6004
 108991961.346 8  84928769.63447  20740473.276
  20740463.2694         50.200          42.9004
 113777516.021 7  88657766.99146  21651143.868
  21651138.0814         46.300          39.1004
 116792264.106 7  91006924.28945  22224829.884
  22224819.2324         44.900          33.6004
 107814651.404 8  84011372.69047  20516442.412
  20516429.5334         51.100          44.9004
 128244483.086 6  99930746.39444  24404106.114
  24404100.1514         39.400          24.4004
 126032928.014 6  98207436.85344  23983273.889
  23983266.2264         39.900          24.2004
 18  1  8 20  3  4.0000000  0 10G26G23G11G03G31G01G14G22G25G32
 127729278.093 5  99529309.31343  24306069.637
  24306063.7914         35.700          21.5004
 122328138.418 7  95320583.36344  23278266.381
  23278254.6744         45.500          29.6004
 124794873.739 6  97242704.57744  23747681.526
  23747671.6364         40.300          25.6004
 110218421.503 8  85884464.23847  20973865.216
  20973857.3194         48.700          42.4004
 108993030.846 8  84929603.02047  20740677.346
  20740666.8704         50.400          43.0004
 113779538.728 7  88659343.12346  21651528.727
  21651522.7644         46.300          39.2004
 116794543.888 7  91008700.73845  22225263.343
  22225253.1024         45.300          33.3004
 107814024.321 8  84010884.05147  20516323.085
  20516309.9124         51.400          44.9004
 128245270.965 6  99931360.32644  24404256.530
  24404250.4504         39.500          24.4004
 126035887.949 6  98209743.29844  23983837.259
  23983829.4204         39.200          24.5004
 18  1  8 20  3  5.0000000  0 10G26G23G11G03G31G01G14G22G25G32
 127726207.463 6  99526916.59543  24305484.338
  24305479.7814         36.400          21.8004
 122325608.538 7  95318612.02544  23277784.632
  23277772.5734         44.200          29.0004
 124798024.168 6  97245159.45244  23748281.169
  23748271.6314         39.900          25.0004
 110216548.815 8  85883005.00247  20973508.733
  20973501.3634         49.000          42.5004
 108994101.030 8  84930436.92547  20740880.680
  20740870.2044         50.700          43.0004
 113781562.031 7  88660919.72446  21651913.537
  21651907.8084         46.400          39.2004
 116796823.933 7  91010477.39845  22225697.282
  22225686.9234         45.200          33.4004
 107813397.766 8  84010395.82747  20516203.883
  20516190.8864         51.700          45.1004
 128246059.540 6  99931974.79044  24404406.788
  24404400.2974         39.200          24.1004
 126038847.998 6  98212049.83744  23984400.191
  23984392.7044         39.200          24.7004
 18  1  8 20  3  6.0000000  0 10G26G23G11G03G31G01G14G22G25G32
 127723136.948 6  99524523.99143  24304900.531
  24304895.1544         36.500          22.0004
 122323078.762 7  95316640.77644  23277303.204
  23277291.4384         43.400          29.4004
 124801174.789 6  97247614.48344  23748880.559
  23748871.1964         39.900          25.8004
 110214676.484 8  85881546.03847  20973152.412
  20973144.5744         49.200          42.7004
 108995171.822 8  84931271.30347  20741084.481
  20741074.2394         50.800          43.0004
 113783585.854 7  88662496.72346  21652299.111
  21652292.9724         46.400          39.4004
 116799104.081 7  91012254.13245  22226131.094
  22226120.5594         45.400          33.6004
 107812771.608 8  84009907.90747  20516084.621
  20516071.6834         51.500          45.1004
 128246848.695 6  99932589.70644  24404556.394
  24404550.6064         39.200          24.4004
 126041808.033 6  98214356.36044  23984963.424
  23984956.2304         39.200          25.2004
 18  1  8 20  3  7.0000000  0 10G26G23G11G03G31G01G14G22G25G32
 127720066.636 6  99522131.52843  24304316.093
  24304311.2444         36.600          21.8004
 122320549.251 7  95314669.72444  23276822.126
  23276809.8914         43.300          29.4004
 124804325.695 6  97250069.72644  23749480.102
  23749470.7994         39.800          27.1004
 110212804.606 8  85880087.43547  20972796.503
  20972788.7824         49.100          42.6004
 108996243.348 8  84932106.26047  20741288.304
  20741277.9454         50.900          42.9004
 113785610.295 7  88664074.20846  21652684.140
  21652677.9434         46.600          39.3004
 116801384.502 7  91014031.08645  22226565.287
  22226554.9874         45.200          32.9004
 107812146.004 8  84009420.42247  20515965.750
  20515952.5194         51.700          45.1004
 128247638.639 6  99933205.23743  24404706.265
  24404700.7714         39.200          23.8004
 126044768.268 6  98216663.03344  23985527.220
  23985519.4994         39.400          25.0004
 18  1  8 20  3  8.0000000  0 10G26G23G11G03G31G01G14G22G25G32
 127716996.316 6  99519739.07943  24303731.957
  24303726.6394         36.700          21.8004
 122318019.736 7  95312698.67744  23276340.719
  23276328.8364         43.300          29.4004
 124807476.668 6  97252525.03444  23750079.741
  23750070.3204         39.900          26.4004
 110210932.947 8  85878628.99847  20972440.097
  20972432.8444         48.900          42.7004
 108997315.378 8  84932941.60947  20741492.213
  20741481.8544         51.200          43.0004
 113787635.169 7  88665652.03046  21653069.595
  21653063.4564         46.300          39.3004
 116803664.940 7  91015808.05345  22226999.410
  22226988.8754         45.300          33.1004
 107811520.733 8  84008933.19647  20515846.817
  20515833.8794         51.400          45.2004
 128248429.063 6  99933821.14544  24404856.661
  24404851.4604         38.900          24.5004
 126047728.455 6  98218969.66044  23986089.602
  23986082.2324         39.200          25.6004
 18  1  8 20  3  9.0000000  0 10G26G23G11G03G31G01G14G22G25G32
 127713926.288 6  99517346.85743  24303147.253
  24303142.5214         36.700          21.8004
 122315490.505 7  95310727.85045  23275859.375
  23275847.8444         43.600          30.2004
 124810627.992 6  97254980.60844  23750678.917
  23750670.3164         39.600          26.1004
 110209061.819 8  85877170.98047  20972083.961
  20972076.3574         48.900          42.7004
 108998388.165 8  84933777.54547  20741696.638
  20741686.3374         51.300          43.3004
 113789660.707 7  88667230.37346  21653455.084
  21653449.1214         45.700          39.2004
 116805945.685 7  91017585.25145  22227433.363
  22227422.8284         45.400          32.7004
 107810896.042 8  84008446.43247  20515727.950
  20515714.8954         51.100          45.3004
 128249220.248 6  99934437.66344  24405007.500
  24405001.6544         38.700          25.7004
 126050688.755 6  98221276.39144  23986652.663
  23986645.9974         39.000          26.2004
 18  1  8 20  3 10.0000000  0 10G26G23G11G03G31G01G14G22G25G32
 127710856.286 6  99514954.64843  24302563.213
  24302558.1294         37.100          21.7004
 122312961.367 7  95308757.09544  23275377.960
  23275366.3124         44.100          29.2004
 124813779.466 6  97257436.30444  23751279.452
  23751269.7964         39.500          25.6004
 110207191.012 8  85875713.20547  20971728.229
  20971720.4494         48.900          42.9004
 108999461.552 8  84934613.95547  20741900.834
  20741890.2404         51.100          43.4004
 113791686.739 7  88668809.10146  21653840.779
  21653834.7574         46.300          39.2004
 116808226.564 7  91019362.56145  22227867.203
  22227856.7854         44.800          32.6004
 107810271.756 8  84007959.96747  20515609.257
  20515596.3784         51.400          45.2004
 128250012.060 6  99935054.66343  24405157.933
  24405152.6734         38.900          23.2004
 126053649.100 6  98223583.15844  23987215.834
  23987209.1094         39.300          25.3004
 18  1  8 20  3 11.0000000  0 10G26G23G11G03G31G01G14G22G25G32
 127707786.547 6  99512562.65943  24301979.214
  24301974.4824         36.700          22.0004
 122310432.480 7  95306786.53544  23274897.033
  23274884.6814         44.100          28.7004
 124816931.242 6  97259892.24044  23751878.791
  23751869.5454         39.600          25.0004
 110205320.657 8  85874255.78747  20971372.303
  20971364.8754         48.300          42.8004
 109000535.659 8  84935450.92547  20742105.259
  20742094.6074         50.900          42.9004
 113793713.417 7  88670388.32846  21654226.269
  21654220.1894         46.400          39.4004
 116810507.672 7  91021140.04645  22228300.974
  22228291.2014         45.300          33.4004
 107809648.019 8  84007473.93647  20515490.437
  20515477.4404         51.700          45.2004
 128250804.574 6  99935672.20944  24405308.982
  24405303.1954         38.700          25.3004
 126056609.592 6  98225890.02644  23987780.045
  23987772.9104         39.300          25.3004
 18  1  8 20  3 12.0000000  0 10G26G23G11G03G31G01G14G22G25G32
 127704716.815 5  99510170.67243  24301394.899
  24301389.9904         35.900          22.0004
 122307903.658 7  95304816.02544  23274415.576
  23274403.9864         44.500          29.6004
 124820083.139 6  97262348.25944  23752478.923
  23752469.3854         39.600          25.3004
 110203450.609 8  85872798.60947  20971016.254
  20971008.7674         48.600          42.8004
 109001610.339 8  84936288.33447  20742309.505
  20742299.2634         50.500          43.0004
 113795740.594 7  88671967.94546  21654611.956
  21654605.9924         46.300          39.2004
 116812788.893 7  91022917.62445  22228735.043
  22228724.8604         45.700          33.3004
 107809024.663 8  84006988.21147  20515371.848
  20515358.8524         51.700          45.2004
 128251597.727 6  99936290.24144  24405459.622
  24405454.3624         38.700          25.3004
 126059570.109 6  98228196.92944  23988343.252
  23988335.8824         39.600          25.6004
 18  1  8 20  3 13.0000000  0 10G26G23G11G03G31G01G14G22G25G32
 127701647.355 6  99507778.87543  24300811.764
  24300805.8604         36.500          22.0004
 122305375.054 7  95302845.67844  23273934.236
  23273922.4124         45.000          29.4004
 124823235.291 6  97264804.48144  23753078.083
  23753069.1894         39.900          24.6004
 110201580.986 8  85871341.75847  20970660.626
  20970652.9634         48.700          42.7004
 109002685.709 8  84937126.28547  20742514.134
  20742504.0684         49.900          42.5004
 113797768.332 7  88673547.99846  21654997.871
  21654991.7324         45.800          39.4004
 116815070.322 7  91024695.36145  22229169.550
  22229159.1334         46.400          33.2004
 107808401.837 8  84006502.88547  20515253.256
  20515240.3774         51.600          45.3004
 128252391.562 6  99936908.79344  24405610.475
  24405605.1574         39.100          25.2004
 126062530.703 6  98230503.89344  23988906.715
  23988899.4034         39.800          26.0004
 18  1  8 20  3 14.0000000  0 10G26G23G11G03G31G01G14G22G25G32
 127698577.663 6  99505386.89243  24300227.389
  24300221.7784         37.000          22.3004
 122302846.299 7  95300875.22244  23273452.925
  23273441.6874         45.300          29.8004
 124826387.341 6  97267260.62944  23753678.215
  23753669.0284         39.300          25.0004
 110199711.470 8  85869884.99447  20970304.901
  20970297.2384         49.000          42.8004
 109003761.422 8  84937964.50347  20742718.870
  20742708.1014         49.900          42.9004
 113799796.373 7  88675128.28746  21655383.755
  21655377.3824         45.800          39.4004
 116817351.653 7  91026473.02145  22229603.463
  22229593.5144         45.800          32.7004
 107807779.154 8  84006017.68047  20515134.823
  20515121.7094         52.000          45.5004
 128253185.754 6  99937527.65244  24405761.071
  24405756.5144         38.800          25.6004
 126065491.124 6  98232810.70944  23989469.493
  23989462.5334         39.800          25.8004
 18  1  8 20  3 15.0000000  0 10G26G23G11G03G31G01G14G22G25G32
 127695508.445 6  99502995.28843  24299643.646
  24299638.2694         36.900          22.3004
 122300318.012 7  95298905.13044  23272972.142
  23272960.5524         45.200          29.1004
 124829539.944 6  97269717.19644  23754277.224
  23754268.7414         39.600          25.7004
 110197842.636 8  85868428.75847  20969949.274
  20969941.4354         48.400          42.7004
 109004838.082 8  84938803.45547  20742923.638
  20742913.5134         49.800          42.6004
 113801825.264 7  88676709.24046  21655769.890
  21655763.9264         46.300          39.2004
 116819633.458 7  91028251.05245  22230037.865
  22230027.3894         45.500          33.3004
 107807157.269 8  84005533.09647  20515016.488
  20515003.3744         52.100          45.5004
 128253980.898 6  99938147.24944  24405912.244
  24405907.8044         39.000          25.0004
 126068451.889 6  98235117.79644  23990033.477
  23990026.1074         39.200          25.2004
 18  1  8 20  3 16.0000000  0 10G26G23G11G03G31G01G14G22G25G32
 127692439.401 6  99500603.82643  24299058.968
  24299054.4704         36.500          22.2004
 122297789.983 7  95296935.23144  23272490.995
  23272479.5814         45.400          29.5004
 124832692.879 6  97272174.02244  23754877.654
  23754868.5844         39.200          25.6004
 110195974.295 8  85866972.90947  20969593.830
  20969586.4024         48.100          42.6004
 109005915.504 8  84939643.00747  20743128.929
  20743118.5704         49.700          42.7004
 113803854.788 7  88678290.68646  21656156.448
  21656149.6654         46.100          39.2004
 116821915.549 7  91030029.30745  22230471.474
  22230461.8184         45.900          32.7004
 107806535.953 8  84005048.95147  20514898.179
  20514885.2414         51.900          45.0004
 128254776.821 6  99938767.44044  24406063.627
  24406059.5404         39.200          24.7004
 126071412.811 6  98237425.01644  23990596.440
  23990589.3644         38.000          25.6004
 18  1  8 20  3 17.0000000  0 10G26G23G11G03G31G01G14G22G25G32
 127689370.260 6  99498212.29143  24298474.706
  24298470.4434         36.700          22.3004
 122295261.796 7  95294965.21944  23272009.806
  23271997.9814         45.700          29.8004
 124835845.676 6  97274630.74844  23755477.709
  23755468.6984         38.900          24.9004
 110194106.010 8  85865517.10147  20969238.573
  20969230.5004         48.300          42.6004
 109006993.256 8  84940482.82147  20743333.832
  20743323.3564         50.200          42.7004
 113805884.576 7  88679872.34146  21656542.386
  21656536.0134         46.100          39.2004
 116824197.482 7  91031807.43545  22230906.347
  22230895.9884         45.700          33.2004
 107805914.790 8  84004564.92547  20514779.856
  20514766.9774         51.900          45.2004
 128255573.100 6  99939387.92344  24406215.885
  24406210.6254         38.600          24.2004
 126074373.525 6  98239732.06244  23991159.440
  23991152.9494         38.700          25.4004
 18  1  8 20  3 18.0000000  0 10G26G23G11G03G31G01G14G22G25G32
 127686301.430 6  99495821.01243  24297890.882
  24297886.0914         36.300          22.5004
 122292733.954 7  95292995.47545  23271529.348
  23271517.5244         45.300          30.0004
 124838998.904 6  97277087.81144  23756077.710
  23756068.5244         39.400          25.8004
 110192238.313 8  85864061.76047  20968882.683
  20968875.1384         48.800          42.4004
 109008071.850 8  84941323.27847  20743539.134
  20743528.8934         50.300          43.1004
 113807915.112 7  88681454.57546  21656929.078
  21656922.5294         46.100          39.2004
 116826479.791 7  91033585.85345  22231340.249
  22231330.2414         45.900          33.2004
 107805294.277 8  84004081.40947  20514661.860
  20514648.9814         51.400          45.4004
 128256370.225 6  99940009.05544  24406367.392
  24406362.5424         38.700          24.2004
 126077334.491 6  98242039.30444  23991722.462
  23991716.2064         38.700          25.5004
 18  1  8 20  3 19.0000000  0 10G26G23G11G03G31G01G14G22G25G32
 127683232.744 6  99493429.84343  24297306.756
  24297302.4934         36.100          22.2004
 122290206.292 7  95291025.87045  23271047.923
  23271036.0994         44.700          30.1004
 124842152.342 6  97279545.04444  23756678.191
  23756669.1214         39.800          25.0004
 110190371.022 7  85862606.72947  20968527.527
  20968519.5134         47.800          42.6004
 109009151.096 8  84942164.25247  20743744.578
  20743734.3364         50.300          42.9004
 113809946.210 7  88683037.24546  21657315.065
  21657308.6924         46.100          39.2004
 116828762.304 7  91035364.43045  22231775.333
  22231764.7994         46.000          33.4004
 107804674.276 8  84003598.29247  20514544.054
  20514531.0584         51.300          45.1004
 128257167.998 6  99940630.70144  24406519.678
  24406514.1254         38.000          24.6004
 126080295.570 6  98244346.62344  23992286.580
  23992279.9134         38.800          24.0004
 18  1  8 20  3 20.0000000  0 10G26G23G11G03G31G01G14G22G25G32
 127680164.031 6  99491038.64643  24296723.014
  24296718.2234         36.100          22.0004
 122287678.673 7  95289056.29844  23270566.891
  23270555.1264         44.100          29.7004
 124845305.863 6  97282002.33444  23757278.455
  23757269.2694         40.200          24.8004
 110188503.990 8  85861151.89947  20968171.925
  20968164.6144         48.200          42.6004
 109010230.874 8  84943005.63447  20743950.283
  20743939.8654         50.600          42.8004
 113811977.765 7  88684620.28046  21657701.900
  21657695.8204         45.900          39.1004
 116831044.883 7  91037143.06745  22232209.721
  22232198.9524         45.700          33.6004
 107804054.596 8  84003115.42447  20514425.833
  20514413.0714         51.100          45.2004
 128257966.334 6  99941252.78244  24406671.045
  24406666.3714         38.600          24.9004
 126083256.572 6  98246653.89743  23992850.023
  23992843.4154         39.000          22.9004
 18  1  8 20  3 21.0000000  0 10G26G23G11G03G31G01G14G22G25G32
 127677095.486 6  99488647.57243  24296139.228
  24296134.6134         37.100          22.3004
 122285151.187 7  95287086.83344  23270086.127
  23270074.2454         44.600          29.8004
 124848459.642 6  97284459.82144  23757877.740
  23757868.9644         40.600          24.1004
 110186637.344 8  85859697.36847  20967816.633
  20967808.9704         48.600          42.5004
 109011311.307 8  84943847.53147  20744155.441
  20744145.3164         50.900          42.7004
 113814009.860 7  88686203.73246  21658088.713
  21658082.4564         46.000          39.1004
 116833327.614 7  91038921.81945  22232643.835
  22232633.4764         45.300          33.5004
 107803435.372 8  84002632.90947  20514307.893
  20514295.2484         51.100          45.3004
 128258765.334 6  99941875.37444  24406823.324
  24406818.4164         38.900          24.4004
 126086217.655 6  98248961.24044  23993414.083
  23993406.9484         39.200          24.9004
 18  1  8 20  3 22.0000000  0 10G26G23G11G03G31G01G14G22G25G32
 127674027.021 6  99486256.56243  24295555.834
  24295550.5754         36.700          22.5004
 122282623.836 7  95285117.46845  23269605.121
  23269593.3564         45.300          30.1004
 124851613.536 6  97286917.39644  23758478.387
  23758469.1414         40.300          24.8004
 110184771.008 8  85858243.08147  20967461.303
  20967453.6994         48.200          42.5004
 109012392.317 8  84944689.87447  20744361.329
  20744351.1464         50.400          42.9004
 113816042.445 7  88687787.56046  21658475.517
  21658469.2614         45.900          38.9004
 116835610.473 7  91040700.66745  22233078.215
  22233067.9154         45.400          32.9004
 107802816.565 8  84002150.72147  20514190.235
  20514177.5314         51.700          45.4004
 128259564.918 6  99942498.41644  24406975.983
  24406970.4894         39.200          25.5004
 126089178.721 6  98251268.56144  23993977.167
  23993970.1494         38.900          25.0004
 18  1  8 20  3 23.0000000  0 10G26G23G11G03G31G01G14G22G25G32
 127670958.844 6  99483865.78343  24294971.462
  24294966.4364         36.800          22.5004
 122280096.725 7  95283148.27944  23269124.297
  23269112.3554         45.800          29.9004
 124854767.738 6  97289375.21443  23759078.679
  23759069.7274         40.400          22.9004
 110182905.172 8  85856789.18647  20967106.315
  20967098.9464         48.200          42.9004
 109013474.084 8  84945532.81247  20744567.277
  20744556.8014         50.500          43.1004
 113818075.696 7  88689371.91646  21658862.301
  21658856.1624         46.000          39.0004
 116837893.619 7  91042479.73945  22233512.849
  22233502.2554         45.500          32.8004
 107802198.319 8  84001668.97547  20514072.453
  20514059.6914         51.500          45.4004
 128260365.243 6  99943122.04244  24407128.386
  24407123.0674         39.100          25.5004
 126092140.017 6  98253576.07444  23994541.077
  23994533.7084         39.200          26.2004
 18  1  8 20  3 24.0000000  0 10G26G23G11G03G31G01G14G22G25G32
 127667890.579 6  99481474.92743  24294388.703
  24294382.7994         36.700          22.2004
 122277569.598 7  95281179.08744  23268643.269
  23268631.2104         45.500          29.8004
 124857921.993 6  97291833.07143  23759678.787
  23759670.0114         40.300          22.5004
 110181039.529 8  85855335.43647  20966751.482
  20966743.9374         48.400          42.8004
 109014556.310 8  84946376.09847  20744773.308
  20744762.4814         50.700          42.9004
 113820109.341 7  88690956.57046  21659249.413
  21659243.4504         45.800          38.9004
 116840176.744 7  91044258.79545  22233947.309
  22233937.1264         45.800          32.9004
 107801580.384 8  84001187.46747  20513955.080
  20513942.3764         51.300          45.3004
 128261166.070 6  99943746.05844  24407280.873
  24407275.3204         39.500          24.3004
 126095101.146 6  98255883.45144  23995104.027
  23995097.2434         39.000          25.6004
 18  1  8 20  3 25.0000000  0 10G26G23G11G03G31G01G14G22G25G32
 127664822.554 6  99479084.27043  24293804.594
  24293799.1594         36.900          21.8004
 122275042.702 7  95279210.07944  23268162.355
  23268150.5894         44.700          29.9004
 124861076.518 6  97294291.14043  23760279.797
  23760270.0824         39.900          22.9004
 110179174.367 8  85853882.06947  20966396.861
  20966389.1394         48.100          42.6004
 109015639.271 8  84947219.96347  20744979.528
  20744969.0524         50.300          43.0004
 113822143.599 7  88692541.70446  21659636.737
  21659630.1294         46.200          38.9004
 116842460.148 7  91046038.06645  22234381.717
  22234371.4164         46.200          33.0004
 107800962.989 8  84000706.37847  20513837.602
  20513824.6644         51.600          45.2004
 128261967.660 6  99944370.67644  24407432.735
  24407427.6514         39.800          26.2004
 126098062.488 6  98258190.99644  23995667.580
  23995660.6204         39.000          25.7004
 18  1  8 20  3 26.0000000  0 10G26G23G11G03G31G01G14G22G25G32
 127661754.776 6  99476693.81143  24293220.692
  24293215.3734         37.000          22.0004
 122272516.108 7  95277241.31245  23267681.838
  23267670.0144         44.900          30.2004
 124864231.400 6  97296749.49244  23760879.782
  23760870.1274         39.900          24.7004
 110177309.715 8  85852429.09447  20966041.486
  20966034.0584         48.500          42.7004
 109016723.003 8  84948064.43547  20745185.600
  20745175.2414         50.500          42.7004
 113824178.551 7  88694127.38446  21660023.649
  21660017.5684         46.400          38.8004
 116844743.862 7  91047817.58645  22234816.521
  22234805.9864         45.800          33.1004
 107800346.177 8  84000225.74847  20513720.044
  20513707.3994         51.400          45.0004
 128262770.017 6  99944995.89144  24407585.929
  24407580.4944         40.400          24.6004
 126101024.014 6  98260498.68044  23996231.235
  23996224.0414         39.000          26.4004
 18  1  8 20  3 27.0000000  0 10G26G23G11G03G31G01G14G22G25G32
 127658686.882 6  99474303.25543  24292636.800
  24292631.8334         36.800          22.3004
 122269989.428 7  95275272.47445  23267200.912
  23267189.0884         45.300          30.7004
 124867386.212 6  97299207.79444  23761480.289
  23761470.6334         39.900          24.3004
 110175445.204 8  85850976.22647  20965686.851
  20965679.3054         48.100          42.9004
 109017807.119 8  84948909.19347  20745392.059
  20745380.9974         50.900          42.7004
 113826213.815 7  88695713.30346  21660410.821
  21660404.6234         45.700          38.6004
 116847027.486 7  91049597.04045  22235250.926
  22235240.9784         45.900          33.0004
 107799729.592 8  83999745.28647  20513602.894
  20513590.0744         52.000          45.1004
 128263572.773 6  99945621.39844  24407738.722
  24407733.0524         41.000          26.0004
 126103985.311 6  98262806.19344  23996794.266
  23996787.4824         38.600          26.2004
 18  1  8 20  3 28.0000000  0 10G26G23G11G03G31G01G14G22G25G32
 127655619.207 6  99471912.85743  24292052.984
  24292047.8414         36.500          21.7004
 122267462.938 7  95273303.77644  23266719.772
  23266708.4764         45.400          29.8004
 124870541.326 6  97301666.32143  23762080.641
  23762070.8684         39.800          23.9004
 110173581.104 7  85849523.68447  20965332.208
  20965324.4284         47.800          42.6004
 109018891.938 8  84949754.51147  20745598.177
  20745587.8774         51.200          42.3004
 113828249.663 7  88697299.68446  21660797.961
  21660792.5844         45.700          38.6004
 116849311.338 7  91051376.66045  22235685.618
  22235675.2594         45.700          33.2004
 107799113.520 8  83999265.23347  20513485.608
  20513472.7884         51.900          45.3004
 128264376.218 6  99946247.45544  24407892.188
  24407886.4604         41.000          27.1004
 126106946.753 6  98265113.79844  23997357.558
  23997351.0084         38.400          24.6004
 18  1  8 20  3 29.0000000  0 10G26G23G11G03G31G01G14G22G25G32
 127652551.811 6  99469522.67143  24291469.074
  24291464.2254         36.900          21.8004
 122264936.730 7  95271335.30644  23266239.348
  23266227.5834         44.700          29.6004
 124873696.754 6  97304125.08844  23762681.131
  23762671.3004         39.400          24.2004
 110171717.530 7  85848071.55047  20964977.543
  20964970.0564         47.800          42.5004
 109019977.529 8  84950600.42547  20745805.150
  20745794.2054         51.100          42.6004
 113830286.200 7  88698886.58746  21661185.584
  21661179.5044         45.800          38.8004
 116851595.488 7  91053156.51345  22236120.595
  22236110.0014         44.700          33.4004
 107798498.013 8  83998785.61547  20513368.336
  20513355.6914         51.300          45.4004
 128265180.473 6  99946874.14744  24408045.014
  24408039.2854         40.500          25.9004
 126109908.388 6  98267421.56544  23997921.002
  23997914.6294         38.800          26.0004
 18  1  8 20  3 30.0000000  0 10G26G23G11G03G31G01G14G22G25G32
 127649484.529 6  99467132.58243  24290885.345
  24290880.2614         36.500          21.8004
 122262410.737 7  95269366.99044  23265758.132
  23265747.1294         45.400          29.7004
 124876852.479 6  97306584.10343  23763281.959
  23763272.1864         39.400          23.8004
 110169854.385 7  85846619.74647  20964622.989
  20964615.5614         47.900          42.5004
 109021063.788 8  84951446.86147  20746011.639
  20746001.1634         50.200          42.5004
 113832323.366 7  88700473.98846  21661573.411
  21661567.3894         45.600          38.7004
 116853879.853 7  91054936.53545  22236554.945
  22236544.3524         45.000          33.1004
 107797883.044 8  83998306.42147  20513251.453
  20513238.4574         51.300          45.5004
 128265985.442 6  99947501.39944  24408198.470
  24408192.1554         41.000          25.9004
 126112870.176 6  98269729.44744  23998485.070
  23998478.4634         38.500          26.4004
 18  1  8 20  3 31.0000000  0 10G26G23G11G03G31G01G14G22G25G32
 127646417.135 6  99464742.40543  24290301.354
  24290296.7394         36.400          21.7004
 122259884.589 7  95267398.56744  23265277.469
  23265266.5834         44.600          29.7004
 124880008.062 6  97309042.99943  23763882.278
  23763872.5054         39.900          23.3004
 110167991.343 8  85845168.02747  20964268.539
  20964260.5244         48.000          42.0004
 109022150.428 8  84952293.59647  20746218.440
  20746207.6714         50.200          42.7004
 113834360.767 7  88702061.57546  21661961.223
  21661955.2014         45.700          38.8004
 116856164.099 7  91056716.46645  22236989.276
  22236979.2694         45.000          33.2004
 107797268.261 8  83997827.36647  20513134.454
  20513121.3404         51.100          45.2004
 128266790.757 6  99948128.92244  24408351.060
  24408345.4494         41.100          25.8004
 126115831.726 6  98272037.14044  23999048.615
  23999041.7154         38.600          25.4004
 18  1  8 20  3 32.0000000  0 10G26G23G11G03G31G01G14G22G25G32
 127643350.071 6  99462352.51743  24289717.636
  24289713.0214         36.900          21.5004
 122257358.842 7  95265430.44544  23264796.808
  23264785.4534         44.600          29.2004
 124883164.103 6  97311502.24644  23764482.752
  23764473.0974         40.200          24.7004
 110166128.877 8  85843716.75647  20963914.248
  20963906.1754         48.600          42.3004
 109023237.925 8  84953140.99547  20746425.595
  20746414.4744         50.900          42.9004
 113836398.922 7  88703649.74046  21662349.018
  21662343.1134         45.800          38.8004
 116858448.746 7  91058496.71345  22237424.330
  22237413.7964         45.600          32.8004
 107796654.140 8  83997348.83047  20513017.800
  20513004.9214         51.100          45.3004
 128267596.934 6  99948757.11744  24408504.849
  24408498.6514         41.300          24.7004
 126118793.569 6  98274345.06344  23999612.438
  23999605.1274         38.400          25.7004
 18  1  8 20  3 33.0000000  0 10G26G23G11G03G31G01G14G22G25G32
 127640283.210 6  99459962.76843  24289133.439
  24289129.5274         37.100          21.7004
 122254833.236 7  95263462.43945  23264316.601
  23264305.0114         44.600          30.0004
 124886320.324 6  97313961.63744  23765083.629
  23765073.9154         40.500          24.5004
 110164266.798 8  85842265.78147  20963559.729
  20963551.8904         48.700          42.3004
 109024326.059 8  84953988.88547  20746632.832
  20746622.1224         50.800          42.8004
 113838437.665 7  88705238.37246  21662736.636
  21662731.0254         45.400          38.9004
 116860733.587 7  91060277.11145  22237859.255
  22237848.7794         45.800          32.7004
 107796040.495 8  83996870.66947  20512900.759
  20512887.6464         50.900          45.2004
 128268403.782 6  99949385.83244  24408658.882
  24408652.3324         41.800          26.5004
 126121755.450 6  98276653.02044  24000175.661
  24000169.3464         38.800          26.0004
 18  1  8 20  3 34.0000000  0 10G26G23G11G03G31G01G14G22G25G32
 127637216.380 6  99457573.01743  24288550.940
  24288545.6804         36.900          21.5004
 122252307.749 7  95261494.52745  23263835.679
  23263824.6164         45.000          30.2004
 124889476.774 6  97316421.21644  23765683.576
  23765674.2144         40.500          24.8004
 110162405.093 8  85840815.10547  20963205.736
  20963197.8394         48.700          42.3004
 109025414.793 8  84954837.24847  20746839.899
  20746829.1304         50.700          42.7004
 113840476.892 7  88706827.37746  21663124.756
  21663119.0274         45.600          38.7004
 116863018.541 7  91062057.59645  22238293.910
  22238283.0244         45.800          32.6004
 107795427.279 8  83996392.82947  20512784.224
  20512771.1694         51.300          45.3004
 128269211.239 7  99950015.01544  24408812.274
  24408805.9014         42.100          27.0004
 126124717.365 6  98278960.99844  24000739.722
  24000733.0554         38.500          26.0004
 18  1  8 20  3 35.0000000  0 10G26G23G11G03G31G01G14G22G25G32
 127634149.494 6  99455183.23543  24287967.217
  24287962.4264         36.400          21.1004
 122249782.231 7  95259526.59045  23263354.733
  23263343.6124         44.500          30.4004
 124892633.209 6  97318880.77443  23766284.403
  23766275.1584         39.500          23.9004
 110160543.576 8  85839364.57047  20962851.429
  20962843.7674         48.000          42.4004
 109026503.976 8  84955685.96547  20747047.142
  20747036.3724         50.400          42.6004
 113842516.490 7  88708416.67646  21663512.963
  21663506.9424         45.900          38.5004
 116865303.463 7  91063838.05245  22238728.750
  22238718.5094         45.400          33.4004
 107794814.329 8  83995915.21247  20512667.525
  20512654.5874         51.100          45.2004
 128270019.183 7  99950644.58744  24408966.187
  24408959.6964         42.300          26.9004
 126127679.190 6  98281268.92744  24001302.818
  24001296.8554         38.600          25.7004
 18  1  8 20  3 36.0000000  0 10G26G23G11G03G31G01G14G22G25G32
 127631082.774 6  99452793.57343  24287383.224
  24287378.7264         36.300          21.3004
 122247256.875 7  95257558.77545  23262874.454
  23262863.0994         43.800          30.4004
 124895789.883 6  97321340.50844  23766885.616
  23766875.6674         39.600          24.2004
 110158682.442 8  85837914.33747  20962497.238
  20962489.2824         48.000          42.3004
 109027593.844 8  84956535.21047  20747254.500
  20747243.6724         50.400          42.6004
 113844556.683 7  88710006.43746  21663901.328
  21663894.6624         46.300          38.6004
 116867588.609 7  91065618.68145  22239163.165
  22239153.1584         45.300          33.2004
 107794201.891 8  83995437.98047  20512550.777
  20512538.2494         51.000          45.3004
 128270827.778 7  99951274.65744  24409120.880
  24409113.8034         43.200          26.7004
 126130641.094 6  98283576.90744  24001866.182
  24001860.5114         38.600          26.1004
 18  1  8 20  3 37.0000000  0 10G26G23G11G03G31G01G14G22G25G32
 127628016.435 6  99450404.22243  24286799.563
  24286795.0064         36.400          21.5004
 122244731.895 7  95255591.26445  23262394.079
  23262382.4304         43.800          30.0004
 124898946.977 6  97323800.57443  23767485.795
  23767476.3154         39.600          22.8004
 110156821.924 8  85836464.58147  20962143.154
  20962135.1394         48.500          42.5004
 109028684.570 8  84957385.13047  20747461.992
  20747451.2814         50.700          42.6004
 113846597.636 7  88711596.78846  21664289.174
  21664283.0944         46.500          38.5004
 116869874.141 7  91067399.61745  22239598.561
  22239587.8504         44.700          32.6004
 107793590.132 8  83994961.29447  20512434.489
  20512422.0204         50.800          45.1004
 128271637.273 7  99951905.42444  24409274.637
  24409267.6774         43.500          26.4004
 126133603.290 6  98285885.10644  24002430.050
  24002424.3224         38.800          26.9004
 18  1  8 20  3 38.0000000  0 10G26G23G11G03G31G01G14G22G25G32
 127624950.227 6  99448014.97243  24286216.425
  24286211.6934         37.000          21.5004
 122242207.097 7  95253623.89044  23261913.716
  23261902.1264         44.600          29.9004
 124902104.296 6  97326260.82843  23768087.492
  23768077.1334         39.900          22.8004
 110154961.795 7  85835015.12947  20961789.264
  20961781.1914         47.900          42.6004
 109029775.965 8  84958235.57047  20747669.924
  20747658.9204         50.500          42.3004
 113848639.161 7  88713187.59146  21664678.337
  21664672.0224         46.300          38.8004
 116872159.865 7  91069180.69845  22240033.713
  22240023.0614         44.900          32.2004
 107792978.854 8  83994484.97247  20512318.197
  20512305.1424         51.100          45.1004
 128272447.434 7  99952536.72044  24409429.609
  24409421.8884         42.700          25.7004
 126136565.558 6  98288193.35544  24002994.254
  24002988.1154         39.700          26.6004
 18  1  8 20  3 39.0000000  0 10G26G23G11G03G31G01G14G22G25G32
 127621883.931 6  99445625.66443  24285632.806
  24285627.8984         36.900          21.5004
 122239682.162 7  95251656.40245  23261433.178
  23261422.0574         43.000          30.6004
 124905261.551 6  97328721.02643  23768688.621
  23768677.7944         40.000          22.6004
 110153101.785 7  85833565.77447  20961435.063
  20961427.2834         47.900          42.4004
 109030867.719 8  84959086.28747  20747877.590
  20747867.0554         51.100          42.7004
 113850680.966 7  88714778.60246  21665066.691
  21665060.6104         46.600          38.9004
 116874445.499 7  91070961.70945  22240468.462
  22240458.1624         44.900          32.7004
 107792367.763 8  83994008.79747  20512201.734
  20512189.2064         50.200          44.9004
 128273257.981 7  99953168.31144  24409582.979
  24409576.4304         42.100          27.9004
 126139527.633 6  98290501.46044  24003557.984
  24003551.8454         39.500          25.7004
 18  1  8 20  3 40.0000000  0 10G26G23G11G03G31G01G14G22G25G32
 127618817.892 6  99443236.54443  24285049.404
  24285044.4954         36.500          21.3004
 122237157.548 7  95249689.16945  23260952.897
  23260941.1314         43.300          30.7004
 124908419.172 6  97331181.50643  23769289.025
  23769278.5494         40.200          23.5004
 110151242.324 8  85832116.84947  20961081.630
  20961073.3814         48.400          42.5004
 109031960.287 8  84959937.63747  20748085.298
  20748074.7044         50.900          42.8004
 113852723.472 7  88716370.16746  21665455.256
  21665448.9414         46.800          39.1004
 116876731.470 7  91072742.98645  22240903.563
  22240893.0284         45.000          32.3004
 107791757.307 8  83993533.11247  20512085.529
  20512072.8844         50.400          44.8004
 128274069.342 7  99953800.55644  24409737.524
  24409730.9754         42.400          27.2004
 126142489.937 6  98292809.74944  24004121.996
  24004115.6824         39.700          25.5004
 18  1  8 20  3 41.0000000  0 10G26G23G11G03G31G01G14G22G25G32
 127615752.107 6  99440847.62143  24284465.436
  24284460.9974         36.600          21.1004
 122234633.229 7  95247722.16845  23260472.446
  23260461.0324         43.800          30.1004
 124911577.121 6  97333642.24343  23769889.538
  23769879.9414         40.500          23.3004
 110149383.361 8  85830668.29847  20960727.619
  20960719.7224         48.000          42.5004
 109033053.614 8  84960789.58347  20748292.997
  20748282.6384         51.400          42.6004
 113854766.667 7  88717962.26646  21665844.422
  21665838.1074         46.400          38.8004
 116879017.736 7  91074524.48745  22241338.328
  22241327.8524         45.300          32.5004
 107791147.438 8  83993057.89347  20511969.483
  20511956.6624         50.400          44.9004
 128274881.477 7  99954433.38944  24409892.034
  24409885.3094         43.000          26.8004
 126145452.441 6  98295118.18844  24004685.960
  24004679.3524         39.700          25.5004
 18  1  8 20  3 42.0000000  0 10G26G23G11G03G31G01G14G22G25G32
 127612686.168 6  99438458.57543  24283882.165
  24283877.9614         36.000          20.9004
 122232108.681 7  95245754.98245  23259991.942
  23259980.6464         44.500          30.3004
 124914734.928 6  97336102.85943  23770490.549
  23770480.4244         40.400          22.2004
 110147524.438 8  85829219.79147  20960373.552
  20960365.9484         48.000          42.6004
 109034147.224 8  84961641.74647  20748501.363
  20748490.9464         50.500          42.5004
 113856810.055 7  88719554.51546  21666233.359
  21666226.6934         45.800          39.2004
 116881303.796 7  91076305.83445  22241773.783
  22241763.3074         45.400          32.8004
 107790537.668 8  83992582.74647  20511853.625
  20511840.9224         51.100          45.1004
 128275693.907 7  99955066.44944  24410046.819
  24410040.3874         43.000          26.3004
 126148414.647 6  98297426.40244  24005250.109
  24005243.3844         39.700          26.5004
 18  1  8 20  3 43.0000000  0 10G26G23G11G03G31G01G14G22G25G32
 127609620.481 5  99436069.73143  24283298.525
  24283294.3794         35.800          21.1004
 122229584.509 7  95243788.09145  23259511.804
  23259500.4484         45.000          30.3004
 124917893.123 6  97338563.79543  23771091.790
  23771081.3734         40.400          22.3004
 110145666.087 7  85827771.72147  20960020.234
  20960012.6884         47.900          42.6004
 109035241.656 8  84962494.54847  20748709.534
  20748698.8244         50.500          42.3004
 113858854.186 7  88721147.34546  21666621.696
  21666615.7914         45.600          39.4004
 116883590.221 7  91078087.46545  22242208.518
  22242198.1594         45.700          32.4004
 107789928.552 8  83992108.11047  20511737.692
  20511725.1064         51.600          44.8004
 128276507.214 7  99955700.18944  24410201.868
  24410194.9674         42.900          26.7004
 126151377.127 6  98299734.83144  24005813.917
  24005807.0754         39.300          26.2004
 18  1  8 20  3 44.0000000  0 10G26G23G11G03G31G01G14G22G25G32
 127606554.834 6  99433680.90343  24282715.105
  24282711.0174         36.400          21.3004
 122227060.316 7  95241821.18944  23259031.497
  23259020.3184         44.500          29.9004
 124921051.386 6  97341024.78343  23771692.458
  23771682.2174         40.200          22.5004
 110143807.980 8  85826323.85147  20959666.816
  20959658.8604         48.300          42.4004
 109036336.617 8  84963347.76147  20748917.938
  20748907.2864         50.500          42.6004
 113860898.738 7  88722740.50046  21667011.318
  21667004.5934         45.800          39.1004
 116885876.691 7  91079869.13245  22242643.092
  22242633.0264         45.400          32.2004
 107789319.767 8  83991633.72947  20511621.918
  20511609.0984         51.800          45.0004
 128277321.019 7  99956334.32044  24410356.426
  24410349.9364         42.700          27.9004
 126154339.515 6  98302043.18944  24006376.635
  24006370.4964         39.200          26.9004
 18  1  8 20  3 45.0000000  0 10G26G23G11G03G31G01G14G22G25G32
 127603489.485 6  99431292.32343  24282132.036
  24282127.7144         36.700          21.1004
 122224536.533 7  95239854.60945  23258551.896
  23258539.8374         43.800          30.4004
 124924210.079 6  97343486.10843  23772294.082
  23772284.1334         40.200          22.6004
 110141950.439 8  85824876.41647  20959313.258
  20959305.1854         48.300          42.5004
 109037432.414 8  84964201.63247  20749126.574
  20749115.9814         51.000          42.7004
 113862944.036 7  88724334.23546  21667400.443
  21667394.0114         45.600          39.1004
 116888163.555 7  91081651.10545  22243078.700
  22243068.2234         45.700          32.3004
 107788711.668 8  83991159.88847  20511506.084
  20511493.2044         51.500          45.1004
 128278135.679 7  99956969.12044  24410511.616
  24410504.4814         42.800          26.6004
 126157302.192 6  98304351.76844  24006940.574
  24006934.2594         39.800          26.2004
 18  1  8 20  3 46.0000000  0 10G26G23G11G03G31G01G14G22G25G32
 127600424.064 6  99428903.69643  24281548.436
  24281544.0564         36.900          20.9004
 122222012.589 7  95237887.88945  23258071.590
  23258059.4734         44.300          30.0004
 124927368.670 6  97345947.35143  23772894.458
  23772884.5684         39.200          22.8004
 110140093.023 8  85823429.07547  20958959.902
  20958951.7704         48.500          42.5004
 109038528.551 8  84965055.76547  20749335.188
  20749324.5954         50.500          42.7004
 113864989.594 7  88725928.18046  21667790.038
  21667783.3134         45.700          39.2004
 116890450.274 7  91083432.95745  22243513.610
  22243503.3694         45.600          32.3004
 107788103.698 8  83990686.14547  20511390.473
  20511377.3594         51.300          45.0004
 128278950.667 7  99957604.17944  24410666.358
  24410659.5744         42.300          26.9004
 126160264.615 6  98306660.15244  24007504.949
  24007498.3424         40.200          26.1004
 18  1  8 20  3 47.0000000  0 10G26G23G11G03G31G01G14G22G25G32
 127597358.994 6  99426515.34543  24280965.321
  24280960.8814         37.100          20.9004
 122219489.101 7  95235921.53845  23257590.753
  23257579.2224         44.600          30.0004
 124930527.755 6  97348408.97543  23773495.882
  23773485.8164         39.000          23.0004
 110138236.258 8  85821982.25547  20958606.269
  20958598.6654         48.400          42.6004
 109039625.650 8  84965910.64647  20749543.778
  20749533.3024         50.100          42.8004
 113867035.992 7  88727522.77246  21668179.014
  21668172.6994         45.900          38.9004
 116892737.461 7  91085215.18245  22243949.221
  22243938.9214         45.200          32.6004
 107787496.539 8  83990213.03347  20511274.944
  20511261.8314         51.700          45.0004
 128279766.661 7  99958240.02044  24410821.648
  24410815.2754         42.800          26.5004
 126163227.446 6  98308968.85044  24008069.171
  24008062.0354         40.200          24.6004
 18  1  8 20  3 48.0000000  0 10G26G23G11G03G31G01G14G22G25G32
 127594293.956 6  99424127.01543  24280381.818
  24280377.9064         36.200          21.1004
 122216965.603 7  95233955.18145  23257110.959
  23257099.1354         45.300          30.2004
 124933686.923 6  97350870.65843  23774096.722
  23774086.7734         39.300          22.8004
 110136379.729 8  85820535.60547  20958253.417
  20958245.4614         48.200          42.7004
 109040723.205 8  84966765.88447  20749752.590
  20749742.2894         50.100          42.5004
 113869082.782 7  88729117.67946  21668568.815
  21668562.2074         45.800          38.8004
 116895024.669 7  91086997.42545  22244384.032
  22244374.2594         45.700          32.4004
 107786889.671 8  83989740.14947  20511159.467
  20511146.5884         51.800          45.0004
 128280583.134 7  99958876.23544  24410976.915
  24410970.4244         42.600          26.9004
 126166190.171 6  98311277.45644  24008632.262
  24008625.6554         40.500          24.9004
 18  1  8 20  3 49.0000000  0 10G26G23G11G03G31G01G14G22G25G32
 127591229.117 5  99421738.84843  24279798.348
  24279794.3784         35.900          21.3004
 122214442.342 7  95231989.00744  23256630.683
  23256618.9764         45.000          29.8004
 124936846.296 6  97353332.49644  23774697.378
  23774688.4264         39.200          24.1004
 110134523.637 8  85819089.29847  20957899.752
  20957892.0904         48.700          42.6004
 109041821.466 8  84967621.66847  20749961.739
  20749951.1464         50.300          42.5004
 113871130.183 7  88730713.05846  21668958.249
  21668951.8754         45.800          38.9004
 116897312.106 7  91088779.83945  22244819.567
  22244809.7944         45.900          32.7004
 107786283.306 8  83989267.66047  20511044.288
  20511031.2914         51.800          44.9004
 128281400.316 7  99959513.00444  24411132.566
  24411125.7234         42.700          26.6004
 126169153.003 6  98313586.15644  24009196.462
  24009189.6794         40.600          24.2004
 18  1  8 20  3 50.0000000  0 10G26G23G11G03G31G01G14G22G25G32
 127588164.394 6  99419350.75543  24279214.742
  24279211.6514         36.000          21.1004
 122211919.198 7  95230022.91445  23256150.103
  23256138.9244         43.800          30.7004
 124940005.920 6  97355794.54644  23775298.920
  23775289.4994         39.400          24.1004
 110132667.918 8  85817643.28847  20957546.792
  20957538.8944         48.100          42.6004
 109042920.382 8  84968477.96447  20750170.706
  20750160.1724         49.900          42.8004
 113873178.115 7  88732308.84646  21669348.016
  21669341.7014         46.300          39.0004
 116899599.718 7  91090562.39745  22245255.156
  22245244.6804         44.900          32.4004
 107785677.428 8  83988795.54447  20510928.603
  20510915.8414         51.300          44.8004
 128282218.157 7  99960150.27244  24411288.363
  24411281.4624         42.700          26.5004
 126172115.924 6  98315894.92944  24009759.862
  24009753.1954         40.400          24.5004
 18  1  8 20  3 51.0000000  0 10G26G23G11G03G31G01G14G22G25G32
 127585099.760 5  99416962.71543  24278632.132
  24278628.5134         35.700          21.1004
 122209396.232 7  95228056.96845  23255670.630
  23255658.8064         43.600          30.6004
 124943165.731 6  97358256.73643  23775900.330
  23775890.9094         38.900          23.9004
 110130812.597 8  85816197.58847  20957193.767
  20957186.2224         48.200          42.8004
 109044019.934 8  84969334.75747  20750380.066
  20750369.5904         50.200          42.7004
 113875226.609 7  88733905.07446  21669737.951
  21669731.4604         46.700          39.0004
 116901887.497 7  91092345.08245  22245690.105
  22245679.7464         45.300          32.6004
 107785072.010 8  83988323.79047  20510813.751
  20510800.7544         51.400          44.9004
 128283036.639 7  99960788.05444  24411443.903
  24411436.9444         42.400          25.7004
 126175078.891 6  98318203.72444  24010323.255
  24010316.8814         40.400          25.6004
 18  1  8 20  3 52.0000000  0 10G26G23G11G03G31G01G14G22G25G32
 127582035.281 6  99414574.78643  24278048.941
  24278045.1464         36.000          21.5004
 122206873.379 7  95226091.10945  23255189.997
  23255178.5834         43.800          30.2004
 124946325.702 6  97360719.05144  23776501.866
  23776492.2104         39.200          24.8004
 110128957.619 8  85814752.14447  20956840.803
  20956832.8474         48.300          42.7004
 109045120.067 8  84970192.00147  20750589.428
  20750578.9524         50.900          42.7004
 113877275.618 7  88735501.70546  21670127.745
  21670120.9614         46.900          38.9004
 116904175.408 7  91094127.87045  22246125.671
  22246115.3124         45.400          32.1004
 107784467.009 8  83987852.36247  20510698.420
  20510685.6584         51.300          44.9004
 128283855.709 7  99961426.29844  24411599.279
  24411592.7304         42.600          26.2004
 126178041.908 6  98320512.56644  24010888.002
  24010880.5734         40.000          25.8004
 18  1  8 20  3 53.0000000  0 10G26G23G11G03G31G01G14G22G25G32
 127578970.903 6  99412186.96543  24277465.734
  24277461.8814         36.100          21.5004
 122204350.646 7  95224125.34844  23254709.947
  23254698.8274         44.100          29.8004
 124949485.859 6  97363181.51144  23777102.841
  23777093.4204         39.100          24.1004
 110127103.007 8  85813306.99647  20956487.971
  20956480.1914         48.800          42.7004
 109046220.831 8  84971049.74947  20750798.957
  20750788.3634         51.200          42.8004
 113879325.165 7  88737098.75446  21670518.326
  21670511.5424         47.000          39.1004
 116906463.467 7  91095910.77445  22246561.060
  22246550.9354         45.700          32.3004
 107783862.457 8  83987381.28547  20510583.513
  20510570.9864         51.400          45.0004
 128284675.454 7  99962065.06544  24411755.532
  24411748.6904         42.800          26.7004
 126181004.963 6  98322821.43244  24011451.936
  24011445.0354         40.600          24.4004
 18  1  8 20  3 54.0000000  0 10G26G23G11G03G31G01G14G22G25G32
 127575906.748 6  99409799.31643  24276882.578
  24276878.7254         36.100          21.7004
 122201828.143 7  95222159.76945  23254229.694
  23254218.9254         44.500          30.7004
 124952646.312 6  97365644.19744  23777704.262
  23777695.1344         39.500          25.6004
 110125248.849 8  85811862.19947  20956135.071
  20956127.2334         48.600          42.8004
 109047322.299 8  84971908.03147  20751008.568
  20750997.7404         50.800          42.5004
 113881375.332 7  88738696.29046  21670907.964
  21670901.0054         46.600          39.2004
 116908751.764 7  91097693.87045  22246996.294
  22246986.0524         45.700          32.4004
 107783258.432 8  83986910.61747  20510468.660
  20510455.6644         51.300          45.0004
 128285495.929 7  99962704.40244  24411911.616
  24411904.6574         42.800          26.4004
 126183968.155 6  98325130.40744  24012015.666
  24012008.5894         40.600          25.9004
 18  1  8 20  3 55.0000000  0 10G26G23G11G03G31G01G14G22G25G32
 127572842.428 6  99407411.53843  24276299.618
  24276295.7654         36.200          21.7004
 122199305.534 7  95220194.10045  23253749.511
  23253738.9184         44.800          31.2004
 124955806.648 6  97368106.79644  23778305.755
  23778296.5694         39.900          24.1004
 110123394.760 8  85810417.45647  20955782.201
  20955774.2454         48.800          42.9004
 109048424.138 8  84972766.60647  20751218.297
  20751207.5874         51.200          42.5004
 113883425.773 7  88740294.03446  21671298.569
  21671291.7854         46.700          39.4004
 116911039.978 7  91099476.88745  22247431.676
  22247421.6104         45.800          32.4004
 107782654.625 8  83986440.11347  20510353.614
  20510340.6764         51.300          45.1004
 128286316.752 7  99963344.00444  24412068.370
  24412060.9414         42.600          26.1004
 126186931.097 6  98327439.19844  24012580.003
  24012572.5164         40.700          26.0004
 18  1  8 20  3 56.0000000  0 10G26G23G11G03G31G01G14G22G25G32
 127569778.762 6  99405024.27143  24275716.471
  24275712.5594         36.000          21.8004
 122196783.576 7  95218228.94345  23253269.333
  23253259.3844         45.000          30.0004
 124958967.759 6  97370570.00144  23778907.127
  23778897.8824         40.100          24.4004
 110121541.606 8  85808973.43647  20955429.860
  20955421.7284         48.200          43.0004
 109049527.126 8  84973626.07647  20751428.422
  20751417.8284         51.400          42.8004
 113885477.270 7  88741892.59746  21671688.912
  21671682.0114         46.900          39.0004
 116913328.843 7  91101260.41945  22247867.504
  22247856.9114         45.900          32.8004
 107782051.776 8  83985970.36347  20510239.076
  20510225.8454         51.300          45.1004
 128287138.745 7  99963984.50444  24412224.575
  24412217.3234         42.500          26.3004
 126189894.668 6  98329748.47744  24013143.810
  24013136.4414         40.100          24.8004
 18  1  8 20  3 57.0000000  0 10G26G23G11G03G31G01G14G22G25G32
 127566714.903 6  99402636.84643  24275133.311
  24275129.4584         36.300          21.7004
 122194261.424 7  95216263.62344  23252789.707
  23252779.1134         44.100          29.8004
 124962128.685 6  97373033.06344  23779508.616
  23779499.4884         39.600          24.6004
 110119688.451 8  85807529.42147  20955077.048
  20955069.5024         48.400          43.2004
 109050630.387 8  84974485.76247  20751638.245
  20751627.5344         51.200          42.7004
 113887528.941 7  88743491.31146  21672078.955
  21672072.7574         47.200          38.8004
 116915617.550 7  91103043.82545  22248302.887
  22248292.7034         46.100          32.6004
 107781449.020 8  83985500.67747  20510124.200
  20510111.4964         51.200          45.0004
 128287961.052 7  99964625.26044  24412380.982
  24412373.7294         42.800          26.4004
 126192857.907 6  98332057.49244  24013707.787
  24013700.4184         39.500          25.4004
 18  1  8 20  3 58.0000000  0 10G26G23G11G03G31G01G14G22G25G32
 127563651.276 6  99400249.61443  24274550.476
  24274546.4474         36.400          22.0004
 122191739.532 7  95214298.51344  23252309.602
  23252299.0684         44.300          29.8004
 124965289.945 6  97375496.38443  23780111.095
  23780101.1464         39.500          23.0004
 110117835.825 8  85806085.81447  20954724.457
  20954716.5604         49.000          43.1004
 109051734.423 8  84975346.05547  20751848.567
  20751837.5054         51.500          42.9004
 113889581.302 7  88745090.55046  21672469.700
  21672463.3854         47.300          39.0004
 116917906.535 7  91104827.45045  22248738.470
  22248728.3464         45.900          32.7004
 107780846.883 8  83985031.48147  20510009.208
  20509996.8564         51.200          44.9004
 128288784.115 7  99965266.61644  24412537.377
  24412530.5934         43.000          26.5004
 126195821.366 6  98334366.66944  24014271.107
  24014263.5024         39.800          24.9004
 18  1  8 20  3 59.0000000  0 10G26G23G11G03G31G01G14G22G25G32
 127560587.879 6  99397862.55343  24273967.586
  24273963.9094         36.600          22.0004
 122189217.889 7  95212333.60045  23251829.297
  23251819.5244         43.600          30.7004
 124968451.434 6  97377959.89344  23780712.286
  23780703.1004         39.500          24.1004
 110115983.616 8  85804642.53547  20954371.829
  20954364.2254         48.800          42.6004
 109052839.145 8  84976206.87447  20752059.024
  20752047.9624         51.300          43.0004
 113891634.243 7  88746690.24546  21672860.439
  21672853.9484         46.400          39.2004
 116920195.743 7  91106611.25145  22249174.176
  22249163.9934         46.100          32.4004
 107780245.249 8  83984562.67147  20509895.254
  20509882.3164         51.500          45.2004
 128289607.888 7  99965908.52544  24412694.157
  24412686.9634         42.500          26.2004
 126198784.952 6  98336675.95444  24014835.277
  24014827.8494         39.900          24.6004
 18  1  8 20  4  0.0000000  0 10G26G23G11G03G31G01G14G22G25G32
 127557524.415 6  99395475.43943  24273384.395
  24273380.7184         36.000          22.5004
 122186696.206 7  95210368.65145  23251349.402
  23251339.3954         44.200          30.2004
 124971612.977 6  97380423.43044  23781314.798
  23781304.3224         39.900          24.9004
 110114131.641 8  85803199.44147  20954019.679
  20954011.8994         48.900          42.6004
 109053944.355 8  84977068.07547  20752269.368
  20752258.1294         51.900          42.8004
 113893687.591 7  88748290.25146  21673250.835
  21673244.8724         46.400          39.2004
 116922484.969 7  91108395.06245  22249610.261
  22249599.4924         46.000          32.5004
 107779643.915 8  83984094.10147  20509780.501
  20509767.6814         51.300          45.1004
 128290432.140 7  99966550.79244  24412851.037
  24412844.1364         42.800          26.1004
 126201748.437 6  98338985.16744  24015399.368
  24015391.7054         40.500          24.7004
 18  1  8 20  4  1.0000000  0 10G26G23G11G03G31G01G14G22G25G32
 127554461.180 6  99393088.50943  24272801.929
  24272797.9594         36.300          22.6004
 122184174.750 7  95208403.88244  23250870.117
  23250859.5244         44.400          29.9004
 124974774.801 6  97382887.17944  23781916.126
  23781905.8844         40.200          25.0004
 110112280.125 8  85801756.70447  20953667.335
  20953659.4384         49.000          42.6004
 109055050.279 8  84977929.83147  20752479.638
  20752468.6354         52.100          42.9004
 113895741.535 7  88749890.72646  21673642.123
  21673635.2224         46.400          39.0004
 116924774.437 7  91110179.06445  22250045.564
  22250035.0884         45.900          32.3004
 107779043.112 8  83983625.95047  20509666.311
  20509653.2564         51.200          45.3004
 128291257.138 7  99967193.65744  24413007.892
  24413000.9914         42.600          26.3004
 126204712.046 6  98341294.47544  24015963.012
  24015955.1154         40.600          24.7004
 18  1  8 20  4  2.0000000  0 10G26G23G11G03G31G01G14G22G25G32
 127551397.887 5  99390701.53243  24272219.160
  24272214.8974         35.500          22.5004
 122181653.312 7  95206439.12344  23250390.475
  23250379.8824         45.100          29.3004
 124977936.675 6  97385350.97444  23782517.224
  23782507.8034         40.700          24.3004
 110110428.836 8  85800314.13347  20953315.323
  20953307.2504         48.900          42.9004
 109056156.679 8  84978791.96047  20752690.338
  20752679.1594         51.300          43.0004
 113897795.892 7  88751491.52046  21674032.756
  21674026.3834         46.700          39.3004
 116927063.924 7  91111963.07745  22250481.473
  22250470.9974         45.900          32.7004
 107778442.628 8  83983158.03647  20509551.891
  20509539.3054         51.000          45.2004
 128292082.624 7  99967836.89644  24413165.509
  24413157.8474         42.600          26.1004
 126207675.588 6  98343603.73143  24016527.408
  24016519.1004         40.800          23.9004
 18  1  8 20  4  3.0000000  0 10G26G23G11G03G31G01G14G22G25G32
 127548335.332 5  99388315.13143  24271636.030
  24271632.0014         35.700          22.2004
 122179132.551 7  95204474.88344  23249910.250
  23249899.9504         45.200          29.3004
 124981099.253 6  97387815.31843  23783119.384
  23783109.8464         39.900          23.9004
 110108578.412 8  85798872.24947  20952962.768
  20952954.9884         48.300          42.9004
 109057264.248 8  84979655.00747  20752900.868
  20752889.9234         50.700          43.2004
 113899851.302 7  88753093.13746  21674423.893
  21674417.2854         46.400          39.3004
 116929354.091 7  91113747.62945  22250917.217
  22250907.0934         45.800          32.6004
 107777843.114 8  83982690.88347  20509437.805
  20509424.9264         51.300          45.1004
 128292909.306 7  99968481.07944  24413322.800
  24413315.3134         42.500          25.7004
 126210639.646 6  98345913.39944  24017090.521
  24017083.3864         40.900          24.5004
 18  1  8 20  4  4.0000000  0 10G26G23G11G03G31G01G14G22G25G32
 127545272.136 6  99385928.23043  24271053.393
  24271049.3064         36.100          22.3004
 122176611.214 7  95202510.21244  23249430.963
  23249420.2534         45.400          29.4004
 124984261.349 6  97390279.29543  23783721.394
  23783711.3874         39.800          23.3004
 110106727.696 8  85797430.12947  20952610.909
  20952602.6024         48.900          42.7004
 109058371.729 8  84980517.97947  20753111.639
  20753100.9294         50.700          42.9004
 113901906.577 7  88754694.65646  21674815.277
  21674808.1424         46.500          39.5004
 116931643.730 7  91115531.76145  22251352.973
  22251342.0864         46.000          32.8004
 107777243.368 8  83982223.54947  20509323.865
  20509310.9274         51.600          45.4004
 128293735.913 7  99969125.17944  24413480.193
  24413472.4134         43.200          26.0004
 126213603.149 6  98348222.61843  24017654.941
  24017647.5134         40.300          23.3004
 18  1  8 20  4  5.0000000  0 10G26G23G11G03G31G01G14G22G25G32
 127542209.365 6  99383541.66643  24270470.406
  24270466.6704         36.600          22.5004
 122174090.318 7  95200545.88345  23248950.803
  23248940.5614         45.400          30.4004
 124987423.906 6  97392743.63644  23784322.567
  23784313.1464         39.700          25.8004
 110104877.625 8  85795988.52247  20952259.045
  20952250.6204         48.300          42.6004
 109059480.152 8  84981381.67847  20753322.311
  20753311.7764         50.300          42.8004
 113903962.668 7  88756296.80546  21675206.350
  21675200.1524         46.500          39.5004
 116933933.821 7  91117316.24245  22251789.100
  22251778.3894         46.400          32.8004
 107776644.352 8  83981756.78347  20509209.487
  20509196.9014         51.500          45.1004
 128294563.429 7  99969769.98844  24413637.406
  24413629.9204         43.400          25.0004
 126216566.932 6  98350532.06044  24018218.768
  24018211.6334         40.100          26.2004
 18  1  8 20  4  6.0000000  0 10G26G23G11G03G31G01G14G22G25G32
 127539146.877 6  99381155.30643  24269888.036
  24269883.8314         36.800          22.5004
 122171569.690 7  95198581.76245  23248471.173
  23248460.6384         45.800          30.1004
 124990586.777 6  97395208.20544  23784925.242
  23784915.3524         39.700          24.0004
 110103028.079 8  85794547.31647  20951906.755
  20951898.6234         48.600          42.7004
 109060589.322 8  84982245.96447  20753533.477
  20753522.8834         50.600          43.0004
 113906019.425 7  88757899.46746  21675597.663
  21675591.4074         46.100          39.2004
 116936224.200 7  91119100.95145  22252224.552
  22252214.3694         46.200          32.8004
 107776045.932 8  83981290.48747  20509095.608
  20509083.0804         51.200          45.3004
 128295391.775 7  99970415.44644  24413795.805
  24413787.5564         43.300          25.5004
 126219530.932 6  98352841.66544  24018782.195
  24018775.3524         39.700          24.8004
 18  1  8 20  4  7.0000000  0 10G26G23G11G03G31G01G14G22G25G32
 127536084.490 6  99378769.03443  24269305.061
  24269300.5634         37.100          22.6004
 122169049.206 7  95196617.74844  23247991.809
  23247980.8054         45.500          29.8004
 124993749.824 6  97397672.91643  23785527.356
  23785516.9974         39.700          23.2004
 110101178.880 8  85793106.38047  20951554.893
  20951546.7024         48.900          42.5004
 109061699.094 8  84983110.72647  20753744.448
  20753733.5614         50.800          42.9004
 113908076.670 7  88759502.51446  21675989.356
  21675982.3974         46.700          39.3004
 116938514.683 7  91120885.74045  22252660.395
  22252649.9194         46.300          33.4004
 107775447.933 8  83980824.50547  20508982.057
  20508969.0614         51.600          45.2004
 128296220.664 7  99971061.32544  24413953.355
  24413945.1064         43.000          25.5004
 126222494.978 6  98355151.31344  24019346.236
  24019339.1014         39.400          24.9004
 18  1  8 20  4  8.0000000  0 10G26G23G11G03G31G01G14G22G25G32
 127533022.083 6  99376382.76343  24268722.207
  24268718.0604         36.800          22.9004
 122166528.686 7  95194653.71245  23247512.039
  23247501.3874         45.000          30.4004
 124996912.956 6  97400137.69143  23786128.896
  23786118.5964         39.600          22.9004
 110099329.892 8  85791665.60647  20951202.996
  20951194.9824         48.500          42.2004
 109062809.365 8  84983975.87147  20753955.727
  20753945.1924         50.900          43.1004
 113910134.356 7  88761105.90646  21676380.706
  21676374.3334         46.400          39.2004
 116940805.236 7  91122670.58545  22253096.482
  22253086.0064         46.800          32.9004
 107774850.262 8  83980358.79047  20508868.291
  20508855.5884         51.200          45.2004
 128297050.122 7  99971707.65744  24414110.882
  24414103.1024         42.800          25.8004
 126225458.934 6  98357460.88544  24019910.605
  24019903.5294         39.100          26.1004
 18  1  8 20  4  9.0000000  0 10G26G23G11G03G31G01G14G22G25G32
 127529959.754 6  99373996.52543  24268139.621
  24268135.1824         37.200          22.9004
 122164008.310 7  95192689.78245  23247032.701
  23247021.6384         43.800          30.0004
 125000076.185 6  97402602.55343  23786730.538
  23786720.7074         39.600          22.6004
 110097481.251 8  85790225.10647  20950851.016
  20950843.1774         49.000          42.2004
 109063920.195 8  84984841.45447  20754166.897
  20754156.5974         50.900          43.2004
 113912192.502 7  88762709.65446  21676772.230
  21676765.7984         46.500          39.1004
 116943095.891 7  91124455.50945  22253532.563
  22253521.6184         47.000          33.0004
 107774252.989 8  83979893.38447  20508754.951
  20508742.0134         50.800          45.4004
 128297880.143 7  99972354.43644  24414268.902
  24414261.0644         42.500          25.4004
 126228422.883 6  98359770.43944  24020474.107
  24020467.7924         39.000          24.7004
 18  1  8 20  4 10.0000000  0 10G26G23G11G03G31G01G14G22G25G32
 127526897.717 6  99371610.53743  24267557.606
  24267552.5814         37.500          22.6004
 122161488.218 7  95190726.07545  23246553.426
  23246542.3054         43.400          30.2004
 125003239.819 6  97405067.70843  23787332.530
  23787322.6404         39.800          22.6004
 110095633.148 8  85788785.02947  20950499.492
  20950491.4784         48.800          42.2004
 109065031.859 8  84985707.68647  20754378.496
  20754368.0784         51.200          43.1004
 113914251.397 7  88764313.98446  21677164.111
  21677157.3864         46.300          38.8004
 116945386.876 7  91126240.69145  22253968.119
  22253957.7024         46.600          33.4004
 107773656.359 8  83979428.47547  20508641.241
  20508628.4794         50.900          45.2004
 128298711.010 7  99973001.86344  24414426.442
  24414419.1314         42.200          24.8004
 126231387.091 6  98362080.19944  24021038.271
  24021031.8394         39.100          24.7004
 18  1  8 20  4 11.0000000  0 10G26G23G11G03G31G01G14G22G25G32
 127523836.010 6  99369224.77743  24266974.493
  24266969.9364         37.300          22.5004
 122158968.462 7  95188762.62044  23246073.947
  23246062.5914         43.900          29.7004
 125006403.796 6  97407533.14643  23787934.794
  23787924.7874         39.400          22.9004
 110093785.595 8  85787345.37547  20950148.073
  20950139.7064         49.000          42.2004
 109066144.288 8  84986574.51447  20754590.381
  20754579.7884         51.100          43.1004
 113916310.959 7  88765918.83646  21677556.208
  21677549.3074         46.100          38.9004
 116947678.181 7  91128026.12545  22254404.125
  22254393.5324         45.600          32.7004
 107773060.349 8  83978964.05247  20508527.384
  20508514.9154         51.000          45.3004
 128299542.645 7  99973649.89044  24414585.452
  24414577.9654         42.600          24.2004
 126234351.466 6  98364390.08644  24021601.615
  24021595.9454         39.400          24.2004
 18  1  8 20  4 12.0000000  0 10G26G23G11G03G31G01G14G22G25G32
 127520774.128 6  99366838.90243  24266391.957
  24266387.0494         37.400          22.0004
 122156448.540 7  95186799.04644  23245594.655
  23245583.1244         44.500          29.7004
 125009567.721 6  97409998.54443  23788536.471
  23788527.0504         40.400          22.8004
 110091938.119 8  85785905.78547  20949796.492
  20949788.2434         48.400          42.1004
 109067257.071 8  84987441.61347  20754801.991
  20754791.5144         50.900          42.8004
 113918370.767 7  88767523.88146  21677947.829
  21677941.2214         46.500          38.9004
 116949969.375 7  91129811.47145  22254839.547
  22254829.5404         45.700          33.0004
 107772464.503 8  83978499.76047  20508414.173
  20508401.7044         50.800          45.4004
 128300374.683 6  99974298.21644  24414743.294
  24414735.9834         41.900          26.2004
 126237315.661 6  98366699.83944  24022166.156
  24022159.9584         40.000          24.5004
 18  1  8 20  4 13.0000000  0 10G26G23G11G03G31G01G14G22G25G32
 127517712.314 6  99364453.07343  24265809.650
  24265804.6244         38.000          22.0004
 122153928.692 7  95184835.53544  23245114.643
  23245103.5224         44.200          29.9004
 125012731.701 6  97412463.98043  23789139.143
  23789129.2534         40.000          22.8004
 110090090.950 8  85784466.43047  20949444.963
  20949436.8314         48.700          42.0004
 109068370.408 8  84988309.14647  20755013.797
  20755003.2044         50.900          42.8004
 113920431.050 7  88769129.30146  21678340.371
  21678333.7634         46.600          38.9004
 116952260.655 7  91131596.88845  22255276.016
  22255265.3644         45.500          33.1004
 107771869.027 8  83978035.75347  20508300.894
  20508288.6014         51.000          45.3004
 128301207.250 6  99974946.97144  24414902.008
  24414894.1694         41.700          25.6004
 126240279.808 6  98369009.57243  24022730.451
  24022724.0194         40.000          23.9004
 18  1  8 20  4 14.0000000  0 10G26G23G11G03G31G01G14G22G25G32
 127514650.929 6  99362067.56543  24265227.926
  24265222.2564         38.100          22.2004
 122151409.327 7  95182872.39744  23244635.550
  23244623.8434         43.100          29.0004
 125015896.226 6  97414929.84143  23789741.409
  23789730.9924         40.100          22.6004
 110088244.468 8  85783027.60947  20949093.554
  20949085.3634         48.600          42.2004
 109069484.705 8  84989177.43647  20755225.841
  20755215.3074         50.700          42.6004
 113922492.219 7  88770735.40046  21678731.955
  21678725.5824         46.200          38.9004
 116954552.421 7  91133382.67845  22255711.981
  22255701.6814         45.000          33.3004
 107771274.346 8  83977572.36747  20508187.699
  20508175.1714         50.000          45.4004
 128302040.813 6  99975596.50744  24415060.465
  24415052.8614         41.800          24.9004
 126243244.329 6  98371319.60544  24023295.307
  24023288.2304         40.300          25.3004
 18  1  8 20  4 15.0000000  0 10G26G23G11G03G31G01G14G22G25G32
 127511589.561 6  99359682.08743  24264645.631
  24264639.6684         37.800          22.0004
 122148889.955 7  95180909.25644  23244156.377
  23244144.6114         43.300          29.8004
 125019060.845 6  97417395.78843  23790343.308
  23790333.5944         40.200          22.6004
 110086398.238 8  85781588.99147  20948742.183
  20948733.8754         49.100          42.2004
 109070599.496 8  84990046.10547  20755437.993
  20755427.4584         51.100          42.9004
 113924553.779 7  88772341.81146  21679124.498
  21679118.1834         46.100          38.9004
 116956844.217 7  91135168.48445  22256147.851
  22256137.9034         45.000          32.9004
 107770679.972 8  83977109.21447  20508074.806
  20508062.1034         50.000          45.1004
 128302874.881 6  99976246.43744  24415219.147
  24415211.6604         41.700          24.9004
 126246208.789 6  98373629.57944  24023859.752
  24023853.0864         39.900          24.8004
 18  1  8 20  4 16.0000000  0 10G26G23G11G03G31G01G14G22G25G32
 127508528.312 6  99357296.69943  24264062.676
  24264057.0644         38.300          22.0004
 122146370.757 7  95178946.24745  23243677.498
  23243665.4394         44.100          30.2004
 125022225.639 6  97419861.86443  23790945.581
  23790935.8674         40.400          22.5004
 110084552.384 8  85780150.66247  20948390.910
  20948382.7204         49.100          42.2004
 109071714.929 8  84990915.27347  20755650.201
  20755639.6664         51.300          42.9004
 113926615.885 7  88773948.64846  21679517.176
  21679510.9194         46.200          38.8004
 116959136.201 7  91136954.44645  22256584.689
  22256574.0374         45.000          33.0004
 107770086.072 8  83976646.43647  20507961.656
  20507949.3634         50.200          45.1004
 128303709.587 6  99976896.85944  24415377.677
  24415370.9524         41.400          24.6004
 126249173.309 6  98375939.59644  24024423.089
  24024416.5984         39.700          24.3004
 18  1  8 20  4 17.0000000  0 10G26G23G11G03G31G01G14G22G25G32
 127505467.194 6  99354911.42443  24263480.022
  24263474.5284         38.300          21.8004
 122143851.647 7  95176983.30845  23243197.723
  23243185.6644         44.500          30.1004
 125025390.583 6  97422328.04143  23791548.135
  23791537.7764         40.400          22.2004
 110082706.871 8  85778712.60347  20948040.006
  20948031.5814         49.200          42.0004
 109072830.934 8  84991784.88347  20755862.755
  20755852.2794         51.500          42.8004
 113928678.472 7  88775555.85646  21679909.422
  21679902.5804         46.600          38.6004
 116961428.281 7  91138740.48245  22257020.357
  22257010.2334         45.100          33.1004
 107769492.580 8  83976183.97547  20507848.901
  20507836.1984         50.300          45.1004
 128304544.908 6  99977547.75444  24415536.211
  24415529.6614         41.000          25.3004
 126252137.877 6  98378249.65244  24024986.862
  24024980.8984         39.100          25.3004
 18  1  8 20  4 18.0000000  0 10G26G23G11G03G31G01G14G22G25G32
 127502406.112 6  99352526.16943  24262897.290
  24262891.9724         38.200          22.2004
 122141332.620 7  95175020.42545  23242718.640
  23242706.6404         44.800          30.2004
 125028555.634 6  97424794.32043  23792149.990
  23792140.4524         40.200          22.5004
 110080861.666 8  85777274.78647  20947688.251
  20947680.2954         49.100          42.1004
 109073947.488 8  84992654.92747  20756074.926
  20756064.3324         51.800          42.8004
 113930741.546 7  88777163.44746  21680302.241
  21680295.8674         46.100          38.6004
 116963720.445 7  91140526.58645  22257456.634
  22257446.3934         44.800          33.1004
 107768899.476 8  83975721.81147  20507735.767
  20507723.0644         50.800          45.2004
 128305380.770 6  99978199.06744  24415695.778
  24415688.5844         40.900          25.0004
 126255102.382 6  98380559.64744  24025550.285
  24025544.7914         38.700          24.3004
 18  1  8 20  4 19.0000000  0 10G26G23G11G03G31G01G14G22G25G32
 127499345.371 6  99350141.17143  24262314.446
  24262309.3034         38.300          22.6004
 122138813.938 7  95173057.81745  23242239.244
  23242227.3034         45.200          30.1004
 125031721.068 6  97427260.87943  23792752.177
  23792742.2874         39.500          22.5004
 110079017.031 8  85775837.40547  20947337.262
  20947329.4244         49.300          42.0004
 109075064.920 8  84993525.65647  20756287.374
  20756277.1914         52.000          42.9004
 113932805.355 7  88778771.61446  21680694.852
  21680688.0684         46.500          38.5004
 116966012.977 7  91142312.97245  22257893.162
  22257882.9794         44.700          33.0004
 107768307.029 8  83975260.16947  20507623.109
  20507610.3474         51.100          45.1004
 128306217.527 6  99978851.08244  24415854.907
  24415848.0064         41.100          25.1004
 126258067.171 6  98382869.87743  24026114.750
  24026108.9634         38.100          22.8004
 18  1  8 20  4 20.0000000  0 10G26G23G11G03G31G01G14G22G25G32
 127496284.634 6  99347756.17943  24261732.085
  24261726.7674         38.200          22.9004
 122136295.307 7  95171095.24745  23241759.828
  23241747.8284         45.000          30.1004
 125034886.647 6  97429727.56243  23793355.009
  23793345.0604         39.800          22.8004
 110077172.673 8  85774400.24247  20946986.423
  20946978.4684         49.100          42.2004
 109076182.849 8  84994396.77247  20756500.221
  20756490.0384         51.900          43.0004
 113934869.604 7  88780380.11746  21681087.567
  21681080.8424         46.600          38.6004
 116968305.590 7  91144099.42045  22258328.883
  22258318.8174         44.500          33.0004
 107767714.961 8  83974798.81547  20507510.178
  20507497.5924         51.300          45.1004
 128307054.827 6  99979503.53344  24416015.110
  24416007.2134         41.500          24.8004
 126261031.953 6  98385180.08343  24026678.268
  24026673.1254         37.900          23.6004
 18  1  8 20  4 21.0000000  0 10G26G23G11G03G31G01G14G22G25G32
 127493223.910 6  99345371.22543  24261149.781
  24261144.6974         38.000          22.6004
 122133776.685 7  95169132.68544  23241280.630
  23241268.2784         45.000          29.7004
 125038052.220 6  97432194.24443  23793957.625
  23793947.1494         39.200          22.6004
 110075328.551 8  85772963.26247  20946635.734
  20946627.6024         49.100          42.2004
 109077301.280 8  84995268.27347  20756713.140
  20756702.9574         51.500          42.9004
 113936934.247 7  88781988.92846  21681480.789
  21681474.1224         46.500          38.5004
 116970598.213 7  91145885.88745  22258765.029
  22258755.0224         45.000          32.8004
 107767123.192 8  83974337.69547  20507397.876
  20507385.4664         51.500          45.1004
 128307892.605 6  99980156.33944  24416173.711
  24416166.8104         41.300          25.5004
 126263996.628 6  98387490.21543  24027242.914
  24027237.1854         38.200          23.0004
 18  1  8 20  4 22.0000000  0 10G26G23G11G03G31G01G14G22G25G32
 127490163.695 6  99342986.64143  24260567.216
  24260562.6604         37.800          22.6004
 122131258.532 7  95167170.49145  23240801.780
  23240789.4284         45.400          30.2004
 125041218.379 6  97434661.38543  23794560.024
  23794549.8414         39.700          22.5004
 110073485.161 8  85771526.85447  20946284.828
  20946276.5794         49.200          42.2004
 109078420.681 8  84996140.53147  20756926.065
  20756915.2964         51.100          42.9004
 113938999.788 7  88783598.43946  21681873.500
  21681866.9514         46.400          38.5004
 116972891.337 7  91147672.73145  22259201.222
  22259191.4494         45.400          32.6004
 107766532.228 8  83973877.20547  20507285.358
  20507272.9474         51.400          45.1004
 128308731.380 6  99980809.94444  24416333.434
  24416326.4744         41.000          25.1004
 126266961.677 6  98389800.64143  24027807.674
  24027801.7114         38.400          22.5004
 18  1  8 20  4 23.0000000  0 10G26G23G11G03G31G01G14G22G25G32
 127487103.266 6  99340601.88043  24259984.849
  24259980.1754         38.400          22.5004
 122128740.210 7  95165208.16445  23240322.042
  23240310.2184         45.000          30.2004
 125044384.392 6  97437128.41643  23795161.590
  23795152.0524         40.100          22.8004
 110071641.815 8  85770090.48347  20945934.101
  20945925.9114         49.500          42.4004
 109079540.383 8  84997013.02947  20757139.192
  20757128.5994         51.000          43.0004
 113941065.523 7  88785208.09846  21682266.607
  21682260.4684         46.800          38.0004
 116975184.326 7  91149459.47245  22259637.976
  22259627.8524         45.600          32.5004
 107765941.399 8  83973416.81247  20507173.014
  20507160.4284         51.100          45.0004
 128309570.489 6  99981463.78644  24416493.076
  24416486.1174         41.100          24.8004
 126269926.514 6  98392110.89443  24028371.640
  24028365.5604         38.300          22.0004
 18  1  8 20  4 24.0000000  0 10G26G23G11G03G31G01G14G22G25G32
 127484043.033 6  99338217.27943  24259402.629
  24259397.7214         38.200          22.8004
 122126222.129 7  95163246.02544  23239843.130
  23239830.8374         45.800          29.8004
 125047550.639 6  97439595.62743  23795764.461
  23795755.0994         39.600          22.6004
 110069798.926 8  85768654.46247  20945583.198
  20945575.5944         49.500          42.6004
 109080660.805 8  84997886.08747  20757352.631
  20757342.0964         51.100          43.1004
 113943131.894 7  88786818.25846  21682659.708
  21682653.4524         47.000          38.1004
 116977477.537 7  91151246.39445  22260074.736
  22260064.3774         45.300          32.6004
 107765351.104 8  83972956.85047  20507060.605
  20507048.0774         51.100          44.9004
 128310410.301 6  99982118.17944  24416652.384
  24416646.2454         40.600          25.6004
 126272891.406 6  98394421.19143  24028936.666
  24028929.7654         37.900          22.3004
 18  1  8 20  4 25.0000000  0 10G26G23G11G03G31G01G14G22G25G32
 127480983.115 6  99335832.92443  24258819.495
  24258815.5244         37.800          22.3004
 122123704.363 7  95161284.13444  23239363.889
  23239352.0064         45.700          29.8004
 125050717.271 6  97442063.12543  23796366.699
  23796357.1614         40.100          22.6004
 110067956.579 8  85767218.87247  20945232.704
  20945224.8654         49.500          42.7004
 109081782.013 8  84998759.75247  20757566.043
  20757555.3324         51.200          42.9004
 113945198.959 7  88788428.95146  21683053.364
  21683046.6974         46.900          38.0004
 116979771.086 7  91153033.57645  22260510.642
  22260501.0454         45.400          32.5004
 107764761.449 8  83972497.37747  20506948.380
  20506936.0874         51.100          44.9004
 128311250.974 6  99982773.25144  24416812.876
  24416805.9174         40.800          25.0004
 126275856.588 6  98396731.72943  24029500.304
  24029493.8144         38.900          22.6004
 18  1  8 20  4 26.0000000  0 10G26G23G11G03G31G01G14G22G25G32
 127477923.146 6  99333448.55043  24258237.984
  24258233.1354         38.000          22.2004
 122121186.555 7  95159322.20645  23238884.792
  23238872.6754         45.500          30.2004
 125053883.939 6  97444530.66943  23796969.297
  23796960.3454         39.900          22.5004
 110066114.447 8  85765783.44847  20944882.450
  20944874.3774         49.600          42.7004
 109082903.680 8  84999633.77947  20757779.544
  20757768.7754         51.100          42.9004
 113947266.392 7  88790039.94346  21683447.133
  21683440.1154         47.000          38.2004
 116982064.637 7  91154820.75645  22260947.275
  22260937.0334         45.300          32.6004
 107764172.068 8  83972038.12347  20506836.134
  20506823.8414         50.800          44.9004
 128312092.082 6  99983428.65744  24416973.108
  24416966.4414         40.700          24.2004
 126278821.670 6  98399042.17143  24030064.876
  24030058.2104         38.300          22.8004
 18  1  8 20  4 27.0000000  0 10G26G23G11G03G31G01G14G22G25G32
 127474863.590 6  99331064.48843  24257654.770
  24257650.5654         37.700          22.0004
 122118669.159 7  95157360.60145  23238405.727
  23238394.0204         43.900          30.4004
 125057051.042 6  97446998.54343  23797572.121
  23797562.5244         39.500          22.8004
 110064272.957 8  85764348.51947  20944531.944
  20944523.7544         49.800          42.5004
 109084026.255 8  85000508.51147  20757992.894
  20757982.2424         51.100          43.1004
 113949334.639 7  88791651.55946  21683840.256
  21683833.7074         46.300          38.1004
 116984358.591 7  91156608.25045  22261384.182
  22261373.5894         45.500          32.6004
 107763583.415 8  83971579.42847  20506724.649
  20506711.4774         50.600          44.9004
 128312934.086 6  99984084.75643  24417132.996
  24417126.3884         40.700          23.9004
 126281787.039 6  98401352.84543  24030628.666
  24030622.4684         38.800          22.3004
 18  1  8 20  4 28.0000000  0 10G26G23G11G03G31G01G14G22G25G32
 127471803.862 6  99328680.27843  24257072.769
  24257068.5054         37.700          22.5004
 122116151.646 7  95155398.91145  23237926.878
  23237914.8784         44.300          30.3004
 125060218.072 6  97449466.36043  23798174.201
  23798165.3074         39.000          22.6004
 110062431.539 8  85762913.64647  20944181.563
  20944173.1384         49.700          42.5004
 109085149.154 8  85001383.49947  20758206.501
  20758196.1424         51.100          43.1004
 113951403.129 7  88793263.36746  21684234.115
  21684227.5654         46.100          38.2004
 116986652.421 7  91158395.64945  22261820.656
  22261810.1224         45.300          32.7004
 107762994.927 8  83971120.86447  20506612.057
  20506599.7064         50.000          44.9004
 128313776.454 6  99984741.14244  24417293.111
  24417286.5624         40.700          24.6004
 126284752.170 6  98403663.33843  24031193.213
  24031186.9574         39.200          23.0004
 18  1  8 20  4 29.0000000  0 10G26G23G11G03G31G01G14G22G25G32
 127468744.485 6  99326296.35843  24256490.932
  24256486.1414         37.900          22.3004
 122113634.430 7  95153437.44444  23237447.383
  23237435.5004         44.900          29.8004
 125063385.464 6  97451934.45443  23798777.025
  23798767.9554         38.600          22.8004
 110060590.698 8  85761479.22647  20943831.354
  20943823.2814         50.000          42.5004
 109086272.881 8  85002259.13147  20758420.584
  20758409.8744         51.000          43.2004
 113953472.348 7  88794875.74646  21684627.588
  21684621.2744         46.000          38.1004
 116988946.610 7  91160183.32545  22262256.705
  22262246.6974         44.700          33.1004
 107762407.094 8  83970662.81647  20506500.677
  20506487.7984         50.100          44.9004
 128314619.670 6  99985398.19644  24417453.193
  24417446.9374         40.400          24.0004
 126287717.567 6  98405974.04243  24031757.776
  24031751.2864         38.800          23.2004
 18  1  8 20  4 30.0000000  0 10G26G23G11G03G31G01G14G22G25G32
 127465685.204 6  99323912.51043  24255907.867
  24255904.0144         37.700          22.2004
 122111117.392 7  95151476.11244  23236968.907
  23236956.3794         45.400          29.7004
 125066553.050 6  97454402.70643  23799380.041
  23799370.6204         38.300          22.6004
 110058750.222 8  85760045.09447  20943480.845
  20943473.1824         49.800          42.5004
 109087397.255 8  85003135.26547  20758634.271
  20758623.6784         51.000          43.3004
 113955542.094 7  88796488.53346  21685021.783
  21685014.8234         45.900          38.4004
 116991240.949 7  91161971.12745  22262693.495
  22262683.4294         45.100          33.1004
 107761819.705 8  83970205.11047  20506388.791
  20506375.7954         50.200          45.0004
 128315463.512 6  99986055.73243  24417614.142
  24417607.5924         40.400          23.4004
 126290683.032 6  98408284.79043  24032321.574
  24032315.3774         39.100          22.6004
 18  1  8 20  4 31.0000000  0 10G26G23G11G03G31G01G14G22G25G32
 127462626.091 6  99321528.78643  24255326.760
  24255321.7944         37.700          22.2004
 122108600.490 7  95149514.89244  23236489.602
  23236477.4844         45.200          29.9004
 125069720.824 6  97456871.09443  23799982.627
  23799973.6164         38.800          22.9004
 110056910.153 8  85758611.26847  20943130.856
  20943123.1934         49.600          42.5004
 109088522.234 8  85004011.87947  20758848.429
  20758838.1874         50.800          43.4004
 113957612.394 7  88798101.75246  21685415.468
  21685408.8024         46.300          38.5004
 116993535.456 7  91163759.05445  22263130.070
  22263119.7114         45.300          32.8004
 107761232.777 8  83969747.76147  20506277.195
  20506264.3154         50.600          45.0004
 128316308.018 6  99986713.79143  24417774.243
  24417768.3974         40.200          23.0004
 126293648.520 6  98410595.54943  24032886.027
  24032879.8884         39.400          22.8004
 18  1  8 20  4 32.0000000  0 10G26G23G11G03G31G01G14G22G25G32
 127459566.909 6  99319145.01643  24254744.655
  24254739.4544         38.100          22.0004
 122106083.570 7  95147553.65445  23236010.496
  23235998.8474         44.500          30.6004
 125072888.598 6  97459339.49543  23800584.946
  23800576.5804         39.100          22.6004
 110055070.264 8  85757177.58547  20942780.792
  20942773.0704         49.800          42.7004
 109089647.671 8  85004888.83747  20759062.640
  20759052.2234         50.900          43.7004
 113959683.070 7  88799715.26246  21685809.382
  21685803.2434         46.300          38.8004
 116995829.957 7  91165546.97045  22263567.142
  22263556.6664         45.300          32.6004
 107760646.139 8  83969290.64147  20506165.465
  20506152.3524         51.100          44.8004
 128317152.979 6  99987372.20643  24417934.740
  24417929.2454         39.600          22.5004
 126296613.923 6  98412906.26643  24033449.772
  24033443.6334         39.200          22.8004
 18  1  8 20  4 33.0000000  0 10G26G23G11G03G31G01G14G22G25G32
 127456508.172 6  99316761.59243  24254162.981
  24254157.6624         38.100          21.7004
 122103567.119 7  95145592.78544  23235531.705
  23235519.9394         44.500          29.8004
 125076056.924 6  97461808.32543  23801187.891
  23801179.4074         38.900          22.3004
 110053231.067 8  85755744.45147  20942430.788
  20942423.0084         49.800          42.8004
 109090774.050 8  85005766.54147  20759277.078
  20759266.3674         51.200          43.6004
 113961754.578 7  88801329.42346  21686203.734
  21686197.4194         46.400          38.6004
 116998124.919 7  91167335.24845  22264004.072
  22263993.3614         45.300          32.4004
 107760060.255 8  83968834.10647  20506053.868
  20506040.9304         51.100          44.9004
 128317998.881 6  99988031.35943  24418095.801
  24418090.1894         39.200          22.5004
 126299579.702 6  98415217.25243  24034013.985
  24034008.1394         39.700          23.8004
 18  1  8 20  4 34.0000000  0 10G26G23G11G03G31G01G14G22G25G32
 127453449.480 6  99314378.19443  24253580.865
  24253575.3124         38.700          21.5004
 122101050.653 7  95143631.90644  23235053.372
  23235040.9624         44.300          29.8004
 125079225.255 6  97464277.15543  23801791.197
  23801781.9524         39.000          22.6004
 110051392.110 8  85754311.49447  20942080.407
  20942072.7444         49.800          42.5004
 109091900.927 8  85006644.62047  20759491.693
  20759480.8074         51.100          43.8004
 113963826.479 7  88802943.89046  21686597.996
  21686591.3304         46.700          38.5004
 117000419.898 7  91169123.54745  22264440.884
  22264430.1734         45.000          32.6004
 107759474.713 8  83968377.84547  20505942.430
  20505929.7864         50.500          45.1004
 128318845.355 6  99988690.95043  24418256.632
  24418250.9034         38.700          22.5004
 126302545.345 6  98417528.15344  24034578.818
  24034572.5044         39.500          25.3004
 18  1  8 20  4 35.0000000  0 10G26G23G11G03G31G01G14G22G25G32
 127450390.931 6  99311994.91243  24252998.887
  24252993.3924         38.900          21.8004
 122098534.412 7  95141671.20245  23234573.738
  23234562.0314         44.600          30.3004
 125082393.833 6  97466746.18343  23802394.539
  23802385.0594         39.200          22.6004
 110049553.615 8  85752878.90847  20941730.494
  20941722.7724         49.000          42.8004
 109093028.504 8  85007523.25847  20759706.187
  20759695.9454         51.100          43.6004
 113965898.983 7  88804558.82846  21686992.556
  21686986.0074         47.000          38.7004
 117002715.113 7  91170912.03345  22264877.532
  22264866.7044         45.300          32.8004
 107758889.692 8  83967921.98147  20505831.141
  20505818.3794         50.600          44.9004
 128319692.517 6  99989351.08043  24418417.966
  24418412.2964         38.700          22.6004
 126305511.189 6  98419839.19344  24035142.933
  24035137.1454         39.500          25.0004
 18  1  8 20  4 36.0000000  0 10G26G23G11G03G31G01G14G22G25G32
 127447332.589 6  99309611.80143  24252417.960
  24252411.5284         39.100          22.0004
 122096018.317 7  95139710.60844  23234095.532
  23234083.0054         45.300          29.7004
 125085562.679 6  97469215.42443  23802996.979
  23802988.3194         38.700          22.5004
 110047715.509 8  85751446.61047  20941381.225
  20941372.9764         48.800          43.0004
 109094156.728 8  85008402.39147  20759920.813
  20759910.2204         51.100          43.3004
 113967972.070 7  88806174.22046  21687386.730
  21687380.0634         46.800          38.6004
 117005010.517 7  91172700.65145  22265314.160
  22265304.0354         45.600          32.5004
 107758305.145 8  83967466.48947  20505719.842
  20505707.0804         50.800          44.9004
 128320540.316 6  99990011.69343  24418579.327
  24418573.7164         38.400          22.8004
 126308477.055 6  98422150.25744  24035707.212
  24035701.0734         39.900          25.3004
 18  1  8 20  4 37.0000000  0 10G26G23G11G03G31G01G14G22G25G32
 127444274.162 6  99307228.59843  24251835.662
  24251829.6404         39.100          21.8004
 122093502.207 7  95137749.99544  23233616.148
  23233604.3834         45.400          29.9004
 125088731.482 6  97471684.60743  23803600.509
  23803591.3224         38.700          22.9004
 110045877.555 8  85750014.44747  20941031.538
  20941023.8164         49.200          42.9004
 109095285.384 8  85009281.86247  20760135.583
  20760124.9894         51.400          43.3004
 113970045.466 7  88807789.85946  21687781.799
  21687774.9564         46.000          39.2004
 117007305.858 7  91174489.22545  22265750.694
  22265740.2774         45.800          33.1004
 107757720.851 8  83967011.19447  20505608.883
  20505596.2384         51.000          44.9004
 128321388.566 6  99990672.66443  24418740.972
  24418734.9504         38.800          22.9004
 126311442.799 6  98424461.21444  24036272.225
  24036266.1444         40.300          24.8004
 18  1  8 20  4 38.0000000  0 10G26G23G11G03G31G01G14G22G25G32
 127441216.045 6  99304845.64843  24251253.166
  24251247.5554         38.400          21.8004
 122090986.387 7  95135789.61645  23233137.704
  23233125.5294         45.400          30.4004
 125091900.674 6  97474154.10543  23804202.700
  23804194.3344         38.500          22.6004
 110044040.181 8  85748582.72847  20940681.716
  20940673.9944         49.200          42.9004
 109096414.841 8  85010161.95747  20760350.702
  20760339.8154         51.300          43.0004
 113972119.602 7  88809406.06846  21688176.505
  21688170.1324         46.700          39.0004
 117009601.569 7  91176278.09045  22266187.479
  22266177.2964         45.600          32.8004
 107757137.209 8  83966556.40947  20505497.691
  20505484.9884         50.900          45.1004
 128322237.659 6  99991334.28644  24418902.838
  24418896.6994         38.800          24.0004
 126314408.764 6  98426772.35343  24036836.479
  24036830.2824         40.600          23.8004
 18  1  8 20  4 39.0000000  0 10G26G23G11G03G31G01G14G22G25G32
 127438157.763 6  99302462.57843  24250671.584
  24250665.6804         38.000          21.8004
 122088470.437 7  95133829.13545  23232658.833
  23232646.4234         45.100          30.4004
 125095069.708 6  97476623.49143  23804805.926
  23804797.2084         37.700          22.9004
 110042202.868 8  85747151.04947  20940332.260
  20940324.3634         49.500          42.8004
 109097544.635 8  85011042.31447  20760565.568
  20760554.6824         51.300          42.8004
 113974193.959 7  88811022.44946  21688571.228
  21688564.4444         47.100          38.8004
 117011897.133 7  91178066.83845  22266624.255
  22266614.0724         45.900          33.2004
 107756553.721 8  83966101.74247  20505386.641
  20505373.8794         50.900          45.1004
 128323087.085 6  99991996.17843  24419063.661
  24419058.4594         38.900          22.6004
 126317374.485 6  98429083.28943  24037401.668
  24037394.2404         40.500          22.8004
 18  1  8 20  4 40.0000000  0 10G26G23G11G03G31G01G14G22G25G32
 127435100.205 6  99300080.06243  24250089.341
  24250084.0234         37.900          22.0004
 122085955.243 7  95131869.24545  23232180.416
  23232168.1234         44.700          30.3004
 125098239.622 6  97479093.55243  23805409.235
  23805400.6354         37.300          22.8004
 110040366.600 8  85745720.19447  20939982.452
  20939975.2004         49.000          42.5004
 109098675.688 8  85011923.65147  20760780.870
  20760769.9254         51.800          43.0004
 113976269.498 7  88812639.75246  21688965.953
  21688959.2284         47.500          38.5004
 117014193.481 7  91179856.20045  22267061.488
  22267051.3054         45.900          32.6004
 107755971.317 8  83965647.92647  20505275.831
  20505262.9524         50.700          45.1004
 128323937.776 6  99992659.03943  24419225.416
  24419220.4494         38.200          22.6004
 126320340.923 6  98431394.80343  24037966.080
  24037959.2974         40.800          23.2004
 18  1  8 20  4 41.0000000  0 10G26G23G11G03G31G01G14G22G25G32
 127432042.474 6  99297697.42143  24249506.982
  24249502.0744         37.700          21.7004
 122083439.884 7  95129909.22545  23231701.413
  23231689.5884         45.400          30.5004
 125101409.360 6  97481563.46543  23806012.916
  23806003.9644         38.000          22.5004
 110038530.339 8  85744289.33447  20939633.070
  20939625.3484         49.400          42.6004
 109099807.015 8  85012805.20747  20760996.026
  20760985.3744         51.400          42.9004
 113978345.231 7  88814257.19946  21689360.945
  21689354.5134         47.100          38.5004
 117016489.675 7  91181645.44445  22267498.402
  22267488.1024         45.600          33.1004
 107755389.033 8  83965194.19647  20505164.947
  20505152.1264         51.000          45.3004
 128324788.805 6  99993322.18143  24419387.259
  24419382.1754         38.400          22.6004
 126323307.059 6  98433706.07944  24038530.573
  24038523.5554         40.400          24.1004
 18  1  8 20  4 42.0000000  0 10G26G23G11G03G31G01G14G22G25G32
 127428984.568 6  99295314.65043  24248924.778
  24248920.1044         37.500          21.7004
 122080924.325 7  95127949.04845  23231223.378
  23231211.2024         45.400          30.4004
 125104578.961 6  97484033.29443  23806615.634
  23806607.5614         38.300          22.5004
 110036694.140 8  85742858.54047  20939283.516
  20939275.9124         48.800          42.7004
 109100938.661 8  85013687.00447  20761211.565
  20761200.6794         51.200          42.9004
 113980421.171 7  88815874.81646  21689756.119
  21689749.3944         47.100          38.6004
 117018785.682 7  91183434.53445  22267935.451
  22267924.7994         45.800          32.9004
 107754806.874 8  83964740.55947  20505054.299
  20505041.3614         51.200          45.3004
 128325640.119 6  99993985.54843  24419548.911
  24419544.1204         38.400          22.5004
 126326272.898 6  98436017.13044  24039094.777
  24039087.9354         40.300          24.4004
 18  1  8 20  4 43.0000000  0 10G26G23G11G03G31G01G14G22G25G32
 127425927.187 6  99292932.27443  24248343.021
  24248338.2894         37.300          21.1004
 122078409.335 7  95125989.32845  23230744.349
  23230732.2314         44.200          31.2004
 125107749.154 6  97486503.57743  23807218.978
  23807210.1434         38.500          22.8004
 110034858.729 8  85741428.34447  20938934.578
  20938926.7984         49.300          42.8004
 109102071.353 8  85014569.62247  20761426.952
  20761416.1834         51.400          43.2004
 113982498.071 7  88817493.17746  21690150.683
  21690144.5444         45.900          38.8004
 117021082.273 7  91185224.09045  22268372.556
  22268362.1974         45.300          33.4004
 107754225.596 8  83964287.62147  20504943.888
  20504930.7744         51.200          45.4004
 128326492.483 6  99994649.73243  24419712.105
  24419706.6704         38.100          22.6004
 126329239.259 6  98438328.58544  24039659.107
  24039652.5584         39.600          25.4004
 18  1  8 20  4 44.0000000  0 10G26G23G11G03G31G01G14G22G25G32
 127422869.853 6  99290549.93943  24247761.473
  24247756.8584         37.300          20.9004
 122075894.353 7  95124029.59645  23230266.327
  23230253.9174         45.000          30.5004
 125110919.427 6  97488973.91943  23807822.770
  23807813.7014         38.300          22.8004
 110033023.571 8  85739998.35447  20938585.328
  20938577.7824         49.400          42.4004
 109103204.537 8  85015452.62247  20761642.836
  20761632.0084         51.300          42.9004
 113984575.357 7  88819111.84146  21690546.032
  21690539.7764         45.900          38.5004
 117023378.899 7  91187013.66545  22268809.383
  22268799.1414         45.400          32.6004
 107753644.642 8  83963834.92947  20504833.418
  20504819.9524         51.200          45.4004
 128327345.377 6  99995314.32543  24419874.835
  24419868.8134         38.800          22.9004
 126332205.534 6  98440639.96944  24040222.887
  24040216.7484         39.600          25.1004
 18  1  8 20  4 45.0000000  0 10G26G23G11G03G31G01G14G22G25G32
 127419812.602 6  99288167.66443  24247179.408
  24247174.7344         37.000          21.1004
 122073379.509 7  95122069.97745  23229787.597
  23229774.8354         45.400          30.4004
 125114089.881 6  97491444.40243  23808425.847
  23808416.8954         38.000          22.3004
 110031188.778 8  85738568.64547  20938236.178
  20938228.1644         49.400          42.4004
 109104338.343 8  85016336.11447  20761858.504
  20761847.9104         52.000          43.0004
 113986653.179 7  88820730.92346  21690941.886
  21690935.2784         46.000          38.5004
 117025675.675 7  91188803.36045  22269246.735
  22269236.2594         45.600          33.1004
 107753064.158 8  83963382.60347  20504722.779
  20504709.9594         51.300          45.4004
 128328198.937 6  99995979.43443  24420037.065
  24420031.2784         39.000          22.5004
 126335171.830 6  98442951.36044  24040786.928
  24040781.3174         39.200          24.5004
 18  1  8 20  4 46.0000000  0 10G26G23G11G03G31G01G14G22G25G32
 127416755.446 6  99285785.47243  24246597.755
  24246592.9054         37.600          21.1004
 122070864.760 7  95120110.43045  23229309.371
  23229296.9024         45.800          30.5004
 125117260.479 6  97493914.98743  23809029.277
  23809020.3244         37.600          22.3004
 110029354.310 8  85737139.18947  20937887.239
  20937879.3424         49.600          42.7004
 109105472.717 8  85017220.03747  20762074.393
  20762064.0344         52.000          43.0004
 113988731.495 7  88822350.38646  21691337.216
  21691330.9014         45.800          38.5004
 117027972.550 7  91190593.13645  22269683.390
  22269672.9724         45.400          32.7004
 107752484.047 8  83962930.56547  20504612.428
  20504599.1394         51.300          45.5004
 128329053.049 6  99996644.97443  24420199.673
  24420193.8864         38.900          22.3004
 126338138.170 6  98445262.79643  24041351.149
  24041345.7724         39.400          23.8004
 18  1  8 20  4 47.0000000  0 10G26G23G11G03G31G01G14G22G25G32
 127413698.875 6  99283403.73343  24246016.147
  24246011.1224         37.700          20.9004
 122068350.610 7  95118151.36345  23228830.586
  23228818.3524         46.400          30.4004
 125120431.684 6  97496386.06743  23809632.654
  23809624.2884         38.100          22.3004
 110027520.657 8  85735710.36847  20937538.181
  20937530.5764         49.700          42.7004
 109106608.159 8  85018104.79647  20762290.446
  20762279.7944         51.500          42.9004
 113990810.778 7  88823970.60646  21691732.649
  21691726.3344         45.700          38.3004
 117030270.040 7  91192383.38845  22270120.860
  22270110.3844         45.500          33.0004
 107751904.851 8  83962479.24947  20504502.284
  20504489.1124         51.500          45.5004
 128329908.250 6  99997311.36643  24420362.640
  24420356.3844         39.400          22.6004
 126341105.020 6  98447574.61844  24041916.293
  24041910.3304         39.400          24.7004
 18  1  8 20  4 48.0000000  0 10G26G23G11G03G31G01G14G22G25G32
 127410641.931 6  99281021.70143  24245434.672
  24245429.7644         37.900          21.1004
 122065836.108 7  95116192.00645  23228352.055
  23228339.7034         46.400          30.4004
 125123602.608 6  97498856.91643  23810235.896
  23810227.2954         38.100          22.3004
 110025686.906 8  85734281.47747  20937189.280
  20937181.9694         50.000          42.6004
 109107743.757 8  85018989.67547  20762506.406
  20762495.9304         51.600          43.3004
 113992890.118 7  88825590.87346  21692128.195
  21692122.2324         45.800          38.0004
 117032567.212 7  91194173.39345  22270557.867
  22270547.5674         45.500          32.3004
 107751325.636 8  83962027.90947  20504391.933
  20504378.8784         51.600          45.3004
 128330763.628 6  99997977.90643  24420525.456
  24420518.8484         39.200          22.8004
 126344071.372 6  98449886.06144  24042480.887
  24042474.7484         39.500          25.3004
 18  1  8 20  4 49.0000000  0 10G26G23G11G03G31G01G14G22G25G32
 127407585.279 6  99278639.89343  24244853.532
  24244847.9794         37.900          20.9004
 122063321.883 7  95114232.86345  23227873.883
  23227861.7074         45.600          30.7004
 125126773.826 6  97501327.99443  23810839.525
  23810831.1004         38.400          22.2004
 110023853.645 8  85732852.95847  20936840.436
  20936832.6564         50.300          42.7004
 109108880.092 8  85019875.13147  20762722.864
  20762711.8604         51.900          43.3004
 113994970.118 7  88827211.64546  21692523.829
  21692517.6904         45.600          38.5004
 117034864.653 7  91195963.60745  22270994.574
  22270984.9194         45.100          32.3004
 107750746.981 8  83961577.01247  20504281.611
  20504268.6734         51.400          45.4004
 128331619.771 6  99998645.02543  24420688.063
  24420681.9834         39.300          23.0004
 126347037.939 6  98452197.66644  24043045.637
  24043039.2644         39.900          24.9004
 18  1  8 20  4 50.0000000  0 10G26G23G11G03G31G01G14G22G25G32
 127404528.805 6  99276258.20443  24244272.072
  24244266.2844         37.800          21.1004
 122060807.874 7  95112273.90545  23227395.705
  23227383.1194         46.000          30.8004
 125129945.317 6  97503799.27743  23811442.988
  23811434.2714         38.300          22.3004
 110022020.832 8  85731424.78647  20936491.581
  20936483.9774         49.800          42.6004
 109110017.124 8  85020761.13547  20762939.021
  20762928.3104         51.900          43.3004
 113997050.721 7  88828832.90046  21692919.768
  21692913.6294         45.700          38.4004
 117037162.335 7  91197754.01045  22271432.030
  22271422.1994         45.700          31.7004
 107750168.868 8  83961126.52847  20504171.998
  20504158.9434         51.600          45.5004
 128332476.651 6  99999312.71743  24420851.450
  24420844.6664         39.000          23.6004
 126350004.641 6  98454509.37544  24043610.177
  24043603.8034         39.500          24.1004
 18  1  8 20  4 51.0000000  0 10G26G23G11G03G31G01G14G22G25G32
 127401472.005 6  99273876.28143  24243690.241
  24243684.4544         38.100          20.9004
 122058293.562 7  95110314.70145  23226916.960
  23226904.9604         45.200          30.8004
 125133116.520 6  97506270.34543  23812046.300
  23812037.4654         38.000          22.6004
 110020187.954 8  85729996.57447  20936142.733
  20936134.9534         49.900          42.6004
 109111154.334 8  85021647.26547  20763155.422
  20763145.0634         52.000          43.4004
 113999131.392 7  88830454.19846  21693315.792
  21693309.6534         45.800          38.3004
 117039459.706 7  91199544.16445  22271868.917
  22271859.2614         45.500          32.2004
 107749590.768 8  83960676.06747  20504061.625
  20504049.1564         51.400          45.3004
 128333333.658 6  99999980.51843  24421015.058
  24421008.2744         39.200          22.5004
 126352970.916 6  98456820.75744  24044174.663
  24044168.5824         39.600          25.0004
 18  1  8 20  4 52.0000000  0 10G26G23G11G03G31G01G14G22G25G32
 127398416.202 6  99271495.14943  24243108.444
  24243103.0084         38.100          21.1004
 122055780.205 7  95108356.24545  23226438.937
  23226426.6444         45.800          31.6004
 125136288.768 6  97508742.21643  23812649.950
  23812641.1154         37.700          22.3004
 110018356.292 8  85728569.31447  20935794.044
  20935786.1474         49.700          42.7004
 109112293.006 8  85022534.54547  20763372.130
  20763361.5954         51.900          43.3004
 114001213.459 7  88832076.59246  21693712.200
  21693705.7094         46.200          38.5004
 117041758.082 7  91201335.10945  22272306.284
  22272296.5114         45.800          32.5004
 107749013.959 8  83960226.59647  20503951.957
  20503939.0784         51.300          45.3004
 128334192.158 6 100000649.47843  24421177.733
  24421171.8294         38.900          22.9004
 126355938.115 6  98459132.86044  24044739.004
  24044733.0994         39.900          24.4004
